Entry_id,GPS_message_type,Time,Lat,Lat_dir,Lon,Lon_dir,GPS_equal,Num_sats,Horizontal_dil,Altitude,Altitude_units,Geo_sep,Geo_sep_units,Age_gps_data,Ref_station_id,Upload_status
00000,$GPGGA,110445.00,4915.97559,N,01513.63330,E,1,05,12.2,21525.6,M,176.2,M,,*65,Created
00001,$GPGGA,110445.00,4915.97559,N,01513.63330,E,1,05,7.9,21525.6,M,17.0,M,,*6E,Forbidden
00002,$GPGGA,110501.00,4915.97559,N,01513.63330,E,1,05,7.9,21525.6,M,16.7,M,,*69,Forbidden
00003,$GPGGA,110518.00,4915.97559,N,01513.63330,E,1,05,12.2,21525.6,M,175.7,M,,*6A,Created
00004,$GPGGA,110518.00,4915.97559,N,01513.63330,E,1,05,7.9,21525.6,M,16.0,M,,*66,Forbidden
00005,$GPGGA,110518.00,4915.97559,N,01513.63330,E,1,05,7.9,21525.6,M,16.0,M,,*66,Forbidden
00006,$GPGGA,110534.00,4915.97559,N,01513.63330,E,1,05,12.2,21525.6,M,175.9,M,,*6A,Forbidden
00007,$GPGGA,110534.00,4915.97559,N,01513.63330,E,1,05,7.9,21525.6,M,15.1,M,,*6A,Forbidden
00008,$GPGGA,110534.00,4915.97559,N,01513.63330,E,1,05,7.9,21525.6,M,15.1,M,,*6A,Forbidden
00009,$GPGGA,110550.00,4915.97559,N,01513.63330,E,1,05,12.2,21525.6,M,176.2,M,,*60,Created
00010,$GPGGA,110550.00,4915.97559,N,01513.63330,E,1,05,12.2,21525.6,M,176.2,M,,*60,Forbidden
00011,$GPGGA,110550.00,4915.97559,N,01513.63330,E,1,05,7.9,21525.6,M,17.0,M,,*6B,Forbidden
00012,$GPGGA,110550.00,4915.97559,N,01513.63330,E,1,05,7.9,21525.6,M,17.0,M,,*6B,Forbidden
00013,$GPGGA,110606.00,4915.97559,N,01513.63330,E,1,05,12.2,21525.6,M,176.2,M,,*60,Forbidden
00014,$GPGGA,110606.00,4915.97559,N,01513.63330,E,1,05,12.2,21525.6,M,176.2,M,,*60,Forbidden
00015,$GPGGA,110606.00,4915.97559,N,01513.63330,E,1,05,7.9,21525.6,M,16.1,M,,*6B,Forbidden
00016,$GPGGA,110623.00,4915.97559,N,01513.63330,E,1,05,12.2,21525.6,M,176.2,M,,*67,Forbidden
00017,$GPGGA,110623.00,4915.97559,N,01513.63330,E,1,05,12.2,21525.6,M,176.2,M,,*67,Forbidden
00018,$GPGGA,110639.00,4915.97559,N,01513.63330,E,1,05,12.1,21525.6,M,175.6,M,,*68,Forbidden
00019,$GPGGA,110639.00,4915.97559,N,01513.63330,E,1,05,7.8,21525.6,M,14.6,M,,*63,Forbidden
00020,$GPGGA,110639.00,4915.97559,N,01513.63330,E,1,05,7.8,21525.6,M,14.6,M,,*63,Forbidden
00021,$GPGGA,110655.00,4915.97559,N,01513.63330,E,1,05,7.9,21525.6,M,15.3,M,,*6C,Forbidden
00022,$GPGGA,110655.00,4915.97559,N,01513.63330,E,1,05,7.9,21525.6,M,15.3,M,,*6C,Forbidden
00023,$GPGGA,110711.00,4915.97559,N,01513.63330,E,1,05,12.2,21525.6,M,176.1,M,,*64,Forbidden
00024,$GPGGA,110711.00,4915.97559,N,01513.63330,E,1,05,7.9,21525.6,M,16.0,M,,*6D,Forbidden
00025,$GPGGA,110711.00,4915.97559,N,01513.63330,E,1,05,7.9,21525.6,M,16.0,M,,*6D,Forbidden
00026,$GPGGA,110727.00,4915.97559,N,01513.63330,E,1,05,12.2,21525.6,M,175.7,M,,*64,Created
00027,$GPGGA,110727.00,4915.97559,N,01513.63330,E,1,05,12.2,21525.6,M,175.7,M,,*64,Forbidden
00028,$GPGGA,110727.00,4915.97559,N,01513.63330,E,1,05,7.9,21525.6,M,16.1,M,,*69,Forbidden
00029,$GPGGA,110727.00,4915.97559,N,01513.63330,E,1,05,7.9,21525.6,M,16.1,M,,*69,Forbidden
00030,$GPGGA,110744.00,4915.97559,N,01513.63330,E,1,05,12.2,21525.6,M,175.9,M,,*6F,Forbidden
00031,$GPGGA,110744.00,4915.97559,N,01513.63330,E,1,05,12.2,21525.6,M,175.9,M,,*6F,Forbidden
00032,$GPGGA,110744.00,4915.97559,N,01513.63330,E,1,05,7.9,21525.6,M,16.1,M,,*6C,Forbidden
00033,$GPGGA,110744.00,4915.97559,N,01513.63330,E,1,05,7.9,21525.6,M,16.1,M,,*6C,Forbidden
00034,$GPGGA,110800.00,4915.97559,N,01513.63330,E,1,05,12.2,21525.6,M,175.7,M,,*6E,Forbidden
00035,$GPGGA,110800.00,4915.97559,N,01513.63330,E,1,05,12.2,21525.6,M,175.7,M,,*6E,Forbidden
00036,$GPGGA,110800.00,4915.97559,N,01513.63330,E,1,05,7.9,21525.6,M,15.6,M,,*67,Forbidden
00037,$GPGGA,110800.00,4915.97559,N,01513.63330,E,1,05,7.9,21525.6,M,15.6,M,,*67,Forbidden
00038,$GPGGA,110816.00,4915.97559,N,01513.63330,E,1,05,12.2,21525.6,M,175.7,M,,*69,Forbidden
00039,$GPGGA,110816.00,4915.97559,N,01513.63330,E,1,05,12.2,21525.6,M,175.7,M,,*69,Forbidden
00040,$GPGGA,110816.00,4915.97559,N,01513.63330,E,1,05,7.9,21525.6,M,15.6,M,,*60,Forbidden
00041,$GPGGA,110816.00,4915.97559,N,01513.63330,E,1,05,7.9,21525.6,M,15.6,M,,*60,Forbidden
00042,$GPGGA,110849.00,4915.97559,N,01513.63330,E,1,05,12.2,21525.6,M,176.2,M,,*65,Forbidden
00043,$GPGGA,110849.00,4915.97559,N,01513.63330,E,1,05,12.2,21525.6,M,176.2,M,,*65,Forbidden
00044,$GPGGA,110849.00,4915.97559,N,01513.63330,E,1,05,7.9,21525.6,M,15.6,M,,*6A,Forbidden
00045,$GPGGA,110849.00,4915.97559,N,01513.63330,E,1,05,7.9,21525.6,M,15.6,M,,*6A,Forbidden
00046,$GPGGA,110905.00,4915.97559,N,01513.63330,E,1,05,12.1,21525.6,M,175.6,M,,*68,Forbidden
00047,$GPGGA,110905.00,4915.97559,N,01513.63330,E,1,05,12.1,21525.6,M,175.6,M,,*68,Forbidden
00048,$GPGGA,110905.00,4915.97559,N,01513.63330,E,1,05,7.9,21525.6,M,15.5,M,,*60,Forbidden
00049,$GPGGA,110921.00,4915.97559,N,01513.63330,E,1,05,12.2,21525.6,M,176.1,M,,*69,Forbidden
00050,$GPGGA,110921.00,4915.97559,N,01513.63330,E,1,05,12.2,21525.6,M,176.1,M,,*69,Forbidden
00051,$GPGGA,110921.00,4915.97559,N,01513.63330,E,1,05,7.9,21525.6,M,15.5,M,,*66,Forbidden
00052,$GPGGA,110937.00,4915.97559,N,01513.63330,E,1,05,12.2,21525.6,M,175.7,M,,*6B,Forbidden
00053,$GPGGA,110937.00,4915.97559,N,01513.63330,E,1,05,12.2,21525.6,M,175.7,M,,*6B,Forbidden
00054,$GPGGA,110953.00,4915.97559,N,01513.63330,E,1,05,12.2,21525.6,M,175.9,M,,*67,Forbidden
00055,$GPGGA,111010.00,4915.97559,N,01513.63330,E,1,05,7.9,21525.6,M,15.3,M,,*6A,Forbidden
00056,$GPGGA,111026.00,4915.97559,N,01513.63330,E,1,05,7.9,21525.6,M,14.9,M,,*64,Forbidden
00057,$GPGGA,111026.00,4915.97559,N,01513.63330,E,1,05,7.9,21525.6,M,14.9,M,,*64,Forbidden
00058,$GPGGA,111042.00,4915.97559,N,01513.63330,E,1,05,12.2,21525.6,M,176.2,M,,*67,Forbidden
00059,$GPGGA,111042.00,4915.97559,N,01513.63330,E,1,05,7.9,21525.6,M,16.3,M,,*6E,Forbidden
00060,$GPGGA,111042.00,4915.97559,N,01513.63330,E,1,05,7.9,21525.6,M,16.3,M,,*6E,Forbidden
00061,$GPGGA,111058.00,4915.97559,N,01513.63330,E,1,05,12.2,21525.6,M,176.1,M,,*6F,Forbidden
00062,$GPGGA,111058.00,4915.97559,N,01513.63330,E,1,05,12.2,21525.6,M,176.1,M,,*6F,Forbidden
00063,$GPGGA,111058.00,4915.97559,N,01513.63330,E,1,05,7.8,21525.6,M,14.6,M,,*63,Forbidden
00064,$GPGGA,111058.00,4915.97559,N,01513.63330,E,1,05,7.8,21525.6,M,14.6,M,,*63,Forbidden
00065,$GPGGA,111114.00,4915.97559,N,01513.63330,E,1,05,12.2,21525.6,M,175.9,M,,*6D,Forbidden
00066,$GPGGA,111114.00,4915.97559,N,01513.63330,E,1,05,12.2,21525.6,M,175.9,M,,*6D,Forbidden
00067,$GPGGA,111114.00,4915.97559,N,01513.63330,E,1,05,7.9,21525.6,M,15.8,M,,*64,Forbidden
00068,$GPGGA,111131.00,4915.97559,N,01513.63330,E,1,05,12.1,21525.6,M,175.4,M,,*64,Conflict
00069,$GPGGA,111131.00,4915.97559,N,01513.63330,E,1,05,12.1,21525.6,M,175.4,M,,*64,Forbidden
00070,$GPGGA,111147.00,4915.97559,N,01513.63330,E,1,05,12.1,21525.6,M,175.6,M,,*67,Forbidden
00071,$GPGGA,111147.00,4915.97559,N,01513.63330,E,1,05,7.9,21525.6,M,17.0,M,,*68,Forbidden
00072,$GPGGA,111147.00,4915.97559,N,01513.63330,E,1,05,7.9,21525.6,M,17.0,M,,*68,Forbidden
00073,$GPGGA,111203.00,4915.97559,N,01513.63330,E,1,05,12.2,21525.6,M,175.7,M,,*66,Forbidden
00074,$GPGGA,111203.00,4915.97559,N,01513.63330,E,1,05,7.8,21525.6,M,14.6,M,,*6F,Forbidden
00075,$GPGGA,111203.00,4915.97559,N,01513.63330,E,1,05,7.8,21525.6,M,14.6,M,,*6F,Forbidden
00076,$GPGGA,111219.00,4915.97559,N,01513.63330,E,1,05,12.2,21525.6,M,175.7,M,,*6D,Forbidden
00077,$GPGGA,111219.00,4915.97559,N,01513.63330,E,1,05,7.9,21525.6,M,15.8,M,,*6A,Forbidden
00078,$GPGGA,111235.00,4915.97559,N,01513.63330,E,1,05,12.2,21525.6,M,175.7,M,,*63,Forbidden
