Entry_id,GPS_message_type,Time,Lat,Lat_dir,Lon,Lon_dir,GPS_equal,Num_sats,Horizontal_dil,Altitude,Altitude_units,Geo_sep,Geo_sep_units,Age_gps_data,Ref_station_id,Upload_status
00000,$GPGGA,111800.00,4915.97559,N,01513.63330,E,1,05,12.1,21525.6,M,174.9,M,,*63,Created
00001,$GPGGA,111800.00,4915.97559,N,01513.63330,E,1,05,12.1,21525.6,M,174.9,M,,*63,Forbidden
00002,$GPGGA,111800.00,4915.97559,N,01513.63330,E,1,05,7.9,21525.6,M,15.8,M,,*68,Forbidden
00003,$GPGGA,111800.00,4915.97559,N,01513.63330,E,1,05,7.9,21525.6,M,15.8,M,,*68,Forbidden
00004,$CANDY,599,17,0,3,0,Candy_detector_data
00005,$GPGGA,111816.00,4915.97559,N,01513.63330,E,1,05,12.1,21525.6,M,174.9,M,,*64,Forbidden
00006,$GPGGA,111816.00,4915.97559,N,01513.63330,E,1,05,12.1,21525.6,M,174.9,M,,*64,Forbidden
00007,$GPGGA,111816.00,4915.97559,N,01513.63330,E,1,05,7.9,21525.6,M,15.8,M,,*6F,Forbidden
00008,$GPGGA,111816.00,4915.97559,N,01513.63330,E,1,05,7.9,21525.6,M,15.8,M,,*6F,Forbidden
00009,$CANDY,599,17,0,3,0,Candy_detector_data
00010,$GPGGA,111832.00,4915.97559,N,01513.63330,E,1,05,12.2,21525.6,M,175.7,M,,*6E,Forbidden
00011,$GPGGA,111832.00,4915.97559,N,01513.63330,E,1,05,12.2,21525.6,M,175.7,M,,*6E,Forbidden
00012,$GPGGA,111832.00,4915.97559,N,01513.63330,E,1,05,7.9,21525.6,M,14.9,M,,*69,Forbidden
00013,$GPGGA,111832.00,4915.97559,N,01513.63330,E,1,05,7.9,21525.6,M,14.9,M,,*69,Forbidden
00014,$CANDY,599,17,0,3,0,Candy_detector_data
00015,$GPGGA,111848.00,4915.97559,N,01513.63330,E,1,05,12.2,21525.6,M,175.7,M,,*63,Forbidden
00016,$GPGGA,111848.00,4915.97559,N,01513.63330,E,1,05,12.2,21525.6,M,175.7,M,,*63,Forbidden
00017,$GPGGA,111848.00,4915.97559,N,01513.63330,E,1,05,7.8,21525.6,M,14.6,M,,*6A,Forbidden
00018,$GPGGA,111848.00,4915.97559,N,01513.63330,E,1,05,7.8,21525.6,M,14.6,M,,*6A,Forbidden
00019,$CANDY,599,17,0,3,0,Candy_detector_data
00020,$GPGGA,111905.00,4915.97559,N,01513.63330,E,1,05,12.1,21525.6,M,175.0,M,,*6F,Forbidden
00021,$GPGGA,111905.00,4915.97559,N,01513.63330,E,1,05,12.1,21525.6,M,175.0,M,,*6F,Forbidden
00022,$GPGGA,111905.00,4915.97559,N,01513.63330,E,1,05,7.9,21525.6,M,14.8,M,,*6D,Forbidden
00023,$GPGGA,111905.00,4915.97559,N,01513.63330,E,1,05,7.9,21525.6,M,14.8,M,,*6D,Forbidden
00024,$GPGGA,111921.00,4915.97559,N,01513.63330,E,1,05,12.1,21525.6,M,175.0,M,,*69,Forbidden
00025,$GPGGA,111921.00,4915.97559,N,01513.63330,E,1,05,12.1,21525.6,M,175.0,M,,*69,Forbidden
00026,$GPGGA,111937.00,4915.97559,N,01513.63330,E,1,05,12.1,21525.6,M,175.0,M,,*6E,Forbidden
00027,$GPGGA,111937.00,4915.97559,N,01513.63330,E,1,05,12.1,21525.6,M,175.0,M,,*6E,Forbidden
00028,$GPGGA,111937.00,4915.97559,N,01513.63330,E,1,05,7.9,21525.6,M,15.8,M,,*6D,Forbidden
00029,$GPGGA,111953.00,4915.97559,N,01513.63330,E,1,05,12.1,21525.6,M,175.0,M,,*6C,Forbidden
00030,$CANDY,599,17,0,3,0,Candy_detector_data
00031,$GPGGA,112009.00,4915.97559,N,01513.63330,E,1,05,7.9,21525.6,M,15.1,M,,*63,Forbidden
00032,$CANDY,599,17,0,3,0,Candy_detector_data
00033,$GPGGA,112026.00,4915.97559,N,01513.63330,E,1,05,12.1,21525.6,M,175.2,M,,*66,Forbidden
00034,$GPGGA,112026.00,4915.97559,N,01513.63330,E,1,05,7.9,21525.6,M,15.8,M,,*67,Forbidden
00035,$GPGGA,112026.00,4915.97559,N,01513.63330,E,1,05,7.9,21525.6,M,15.8,M,,*67,Forbidden
00036,$CANDY,599,17,0,3,0,Candy_detector_data
00037,$GPGGA,112042.00,4915.97559,N,01513.63330,E,1,05,12.1,21525.6,M,175.0,M,,*66,Forbidden
00038,$GPGGA,112042.00,4915.97559,N,01513.63330,E,1,05,7.9,21525.6,M,15.5,M,,*68,Forbidden
00039,$GPGGA,112042.00,4915.97559,N,01513.63330,E,1,05,7.9,21525.6,M,15.5,M,,*68,Forbidden
00040,$CANDY,599,17,0,3,0,Candy_detector_data
00041,$GPGGA,112058.00,4915.97559,N,01513.63330,E,1,05,12.1,21525.6,M,174.9,M,,*65,Forbidden
00042,$GPGGA,112058.00,4915.97559,N,01513.63330,E,1,05,12.1,21525.6,M,174.9,M,,*65,Forbidden
00043,$GPGGA,112058.00,4915.97559,N,01513.63330,E,1,05,7.9,21525.6,M,15.3,M,,*65,Forbidden
00044,$GPGGA,112058.00,4915.97559,N,01513.63330,E,1,05,7.9,21525.6,M,15.3,M,,*65,Forbidden
00045,$CANDY,599,17,0,3,0,Candy_detector_data
00046,$GPGGA,112114.00,4915.97559,N,01513.63330,E,1,05,12.1,21525.6,M,174.7,M,,*62,Forbidden
00047,$GPGGA,112114.00,4915.97559,N,01513.63330,E,1,05,12.1,21525.6,M,174.7,M,,*62,Forbidden
00048,$GPGGA,112114.00,4915.97559,N,01513.63330,E,1,05,7.9,21525.6,M,15.5,M,,*6A,Forbidden
00049,$GPGGA,112114.00,4915.97559,N,01513.63330,E,1,05,7.9,21525.6,M,15.5,M,,*6A,Forbidden
00050,$GPGGA,112130.00,4915.97559,N,01513.63330,E,1,05,12.1,21525.6,M,174.5,M,,*66,Forbidden
00051,$GPGGA,112130.00,4915.97559,N,01513.63330,E,1,05,12.1,21525.6,M,174.5,M,,*66,Forbidden
00052,$GPGGA,112130.00,4915.97559,N,01513.63330,E,1,05,7.8,21525.6,M,14.6,M,,*6F,Forbidden
00053,$GPGGA,112130.00,4915.97559,N,01513.63330,E,1,05,7.8,21525.6,M,14.6,M,,*6F,Forbidden
00054,$CANDY,599,17,0,3,0,Candy_detector_data
00055,$GPGGA,112147.00,4915.97559,N,01513.63330,E,1,05,12.1,21525.6,M,174.4,M,,*67,Forbidden
00056,$GPGGA,112147.00,4915.97559,N,01513.63330,E,1,05,12.1,21525.6,M,174.4,M,,*67,Forbidden
00057,$GPGGA,112147.00,4915.97559,N,01513.63330,E,1,05,7.9,21525.6,M,15.3,M,,*6A,Forbidden
00058,$GPGGA,112147.00,4915.97559,N,01513.63330,E,1,05,7.9,21525.6,M,15.3,M,,*6A,Forbidden
00059,$CANDY,599,17,0,3,0,Candy_detector_data
00060,$GPGGA,112203.00,4915.97559,N,01513.63330,E,1,05,12.1,21525.6,M,175.0,M,,*61,Forbidden
00061,$GPGGA,112203.00,4915.97559,N,01513.63330,E,1,05,7.9,21525.6,M,16.1,M,,*68,Forbidden
00062,$GPGGA,112203.00,4915.97559,N,01513.63330,E,1,05,7.9,21525.6,M,16.1,M,,*68,Forbidden
00063,$CANDY,599,17,0,3,0,Candy_detector_data
00064,$GPGGA,112219.00,4915.97559,N,01513.63330,E,1,05,12.1,21525.6,M,174.9,M,,*62,Forbidden
00065,$GPGGA,112219.00,4915.97559,N,01513.63330,E,1,05,12.1,21525.6,M,174.9,M,,*62,Forbidden
00066,$GPGGA,112219.00,4915.97559,N,01513.63330,E,1,05,7.9,21525.6,M,15.1,M,,*60,Forbidden
00067,$GPGGA,112219.00,4915.97559,N,01513.63330,E,1,05,7.9,21525.6,M,15.1,M,,*60,Forbidden
00068,$CANDY,599,17,0,3,0,Candy_detector_data
00069,$GPGGA,112235.00,4915.97559,N,01513.63330,E,1,05,12.1,21525.6,M,174.4,M,,*61,Forbidden
00070,$GPGGA,112235.00,4915.97559,N,01513.63330,E,1,05,12.1,21525.6,M,174.4,M,,*61,Forbidden
00071,$GPGGA,112235.00,4915.97559,N,01513.63330,E,1,05,7.9,21525.6,M,15.8,M,,*67,Forbidden
00072,$GPGGA,112235.00,4915.97559,N,01513.63330,E,1,05,7.9,21525.6,M,15.8,M,,*67,Forbidden
00073,$CANDY,599,17,0,3,0,Candy_detector_data
00074,$GPGGA,112251.00,4900.67920,N,01552.81970,E,1,07,12.1,2343.5,M,174.7,M,,*58,Forbidden
00075,$GPGGA,112251.00,4900.67920,N,01552.81970,E,1,07,12.1,2343.5,M,174.7,M,,*58,Forbidden
00076,$GPGGA,112251.00,4900.67920,N,01552.81970,E,1,07,7.9,2343.5,M,16.7,M,,*51,Forbidden
00077,$GPGGA,112251.00,4900.67920,N,01552.81970,E,1,07,7.9,2343.5,M,16.7,M,,*51,Forbidden
00078,$CANDY,599,17,0,3,0,Candy_detector_data
00079,$GPGGA,112308.00,4900.49121,N,01553.07935,E,1,06,12.1,2245.1,M,174.2,M,,*59,Forbidden
00080,$GPGGA,112308.00,4900.49121,N,01553.07935,E,1,06,12.1,2245.1,M,174.2,M,,*59,Forbidden
00081,$GPGGA,112308.00,4900.49121,N,01553.07935,E,1,06,7.9,2245.1,M,15.1,M,,*50,Forbidden
00082,$GPGGA,112308.00,4900.49121,N,01553.07935,E,1,06,7.9,2245.1,M,15.1,M,,*50,Forbidden
00083,$CANDY,599,17,0,3,0,Candy_detector_data
00084,$GPGGA,112324.00,4900.33252,N,01553.33228,E,1,07,12.1,2137.8,M,174.9,M,,*58,Forbidden
00085,$GPGGA,112324.00,4900.33252,N,01553.33228,E,1,07,12.1,2137.8,M,174.9,M,,*58,Forbidden
00086,$GPGGA,112324.00,4900.33252,N,01553.33228,E,1,07,7.9,2137.8,M,16.7,M,,*5F,Forbidden
00087,$GPGGA,112324.00,4900.33252,N,01553.33228,E,1,07,7.9,2137.8,M,16.7,M,,*5F,Forbidden
00088,$CANDY,599,17,0,3,0,Candy_detector_data
00089,$GPGGA,112340.00,4900.26123,N,01553.46631,E,1,06,12.1,2082.3,M,174.7,M,,*5E,Forbidden
00090,$GPGGA,112340.00,4900.26123,N,01553.46631,E,1,06,12.1,2082.3,M,174.7,M,,*5E,Forbidden
00091,$GPGGA,112340.00,4900.26123,N,01553.46631,E,1,06,7.9,2082.3,M,15.1,M,,*52,Forbidden
00092,$GPGGA,112340.00,4900.26123,N,01553.46631,E,1,06,7.9,2082.3,M,15.1,M,,*52,Forbidden
00093,$CANDY,599,17,0,3,0,Candy_detector_data
00094,$GPGGA,112356.00,4900.13184,N,01553.67102,E,1,08,12.1,1989.6,M,174.4,M,,*5F,Forbidden
00095,$GPGGA,112356.00,4900.13184,N,01553.67102,E,1,08,12.1,1989.6,M,174.4,M,,*5F,Forbidden
00096,$GPGGA,112356.00,4900.13184,N,01553.67102,E,1,08,7.9,1989.6,M,15.5,M,,*54,Forbidden
00097,$GPGGA,112356.00,4900.13184,N,01553.67102,E,1,08,7.9,1989.6,M,15.5,M,,*54,Forbidden
00098,$CANDY,599,17,0,3,0,Candy_detector_data
00099,$GPGGA,112413.00,4859.95801,N,01553.97559,E,1,08,12.1,1828.5,M,174.7,M,,*51,Forbidden
00100,$GPGGA,112413.00,4859.95801,N,01553.97559,E,1,08,12.1,1828.5,M,174.7,M,,*51,Forbidden
00101,$GPGGA,112413.00,4859.95801,N,01553.97559,E,1,08,7.9,1828.5,M,16.3,M,,*5C,Forbidden
00102,$GPGGA,112413.00,4859.95801,N,01553.97559,E,1,08,7.9,1828.5,M,16.3,M,,*5C,Forbidden
00103,$GPGGA,112429.00,4859.81396,N,01554.29492,E,1,07,12.1,1688.7,M,174.4,M,,*56,Forbidden
00104,$GPGGA,112429.00,4859.81396,N,01554.29492,E,1,07,12.1,1688.7,M,174.4,M,,*56,Forbidden
00105,$GPGGA,112429.00,4859.81396,N,01554.29492,E,1,07,7.9,1688.7,M,16.3,M,,*58,Forbidden
00106,$GPGGA,112445.00,4859.73486,N,01554.49829,E,1,04,12.1,1609.3,M,174.4,M,,*53,Forbidden
00107,$GPGGA,112445.00,4859.73486,N,01554.49829,E,1,04,12.1,1609.3,M,174.4,M,,*53,Forbidden
00108,$GPGGA,112501.00,4859.73486,N,01554.49829,E,1,04,12.1,1609.3,M,174.5,M,,*53,Forbidden
00109,$CANDY,599,17,0,3,0,Candy_detector_data
00110,$GPGGA,112534.00,4859.53418,N,01555.51050,E,1,06,12.1,1324.9,M,174.4,M,,*5D,Forbidden
00111,$GPGGA,112534.00,4859.53418,N,01555.51050,E,1,06,7.9,1324.9,M,16.1,M,,*51,Forbidden
00112,$GPGGA,112534.00,4859.53418,N,01555.51050,E,1,06,7.9,1324.9,M,16.1,M,,*51,Forbidden
00113,$CANDY,599,17,0,3,0,Candy_detector_data
00114,$GPGGA,112550.00,4859.51465,N,01555.72742,E,1,06,12.1,1254.3,M,174.7,M,,*5D,Forbidden
00115,$GPGGA,112550.00,4859.51465,N,01555.72742,E,1,06,7.9,1254.3,M,16.5,M,,*56,Forbidden
00116,$GPGGA,112550.00,4859.51465,N,01555.72742,E,1,06,7.9,1254.3,M,16.5,M,,*56,Forbidden
00117,$CANDY,599,17,0,3,0,Candy_detector_data
00118,$GPGGA,112606.00,4859.48975,N,01556.00183,E,1,07,12.1,1178.8,M,173.8,M,,*5B,Forbidden
00119,$GPGGA,112606.00,4859.48975,N,01556.00183,E,1,07,12.1,1178.8,M,173.8,M,,*5B,Forbidden
00120,$GPGGA,112606.00,4859.48975,N,01556.00183,E,1,07,7.9,1178.8,M,16.7,M,,*5A,Forbidden
00121,$GPGGA,112606.00,4859.48975,N,01556.00183,E,1,07,7.9,1178.8,M,16.7,M,,*5A,Forbidden
00122,$CANDY,599,17,0,3,0,Candy_detector_data
00123,$GPGGA,112622.00,4859.47754,N,01556.12695,E,1,06,12.1,1139.2,M,174.2,M,,*5F,Forbidden
00124,$GPGGA,112622.00,4859.47754,N,01556.12695,E,1,06,12.1,1139.2,M,174.2,M,,*5F,Forbidden
00125,$GPGGA,112622.00,4859.47754,N,01556.12695,E,1,06,7.9,1139.2,M,18.0,M,,*5A,Forbidden
00126,$GPGGA,112622.00,4859.47754,N,01556.12695,E,1,06,7.9,1139.2,M,18.0,M,,*5A,Forbidden
00127,$GPGGA,112638.00,4859.44727,N,01556.49146,E,1,06,12.1,1006.1,M,174.7,M,,*5F,Created
00128,$GPGGA,112638.00,4859.44727,N,01556.49146,E,1,06,12.1,1006.1,M,174.7,M,,*5F,Forbidden
00129,$GPGGA,112638.00,4859.44727,N,01556.49146,E,1,06,7.9,1006.1,M,17.5,M,,*55,Forbidden
00130,$GPGGA,112638.00,4859.44727,N,01556.49146,E,1,06,7.9,1006.1,M,17.5,M,,*55,Forbidden
00131,$CANDY,599,17,0,3,0,Candy_detector_data
00132,$GPGGA,112655.00,4859.42529,N,01556.70325,E,1,08,12.1,892.1,M,174.4,M,,*6A,Forbidden
00133,$GPGGA,112655.00,4859.42529,N,01556.70325,E,1,08,12.1,892.1,M,174.4,M,,*6A,Forbidden
00134,$GPGGA,112655.00,4859.42529,N,01556.70325,E,1,08,7.9,892.1,M,17.0,M,,*66,Forbidden
00135,$CANDY,599,17,0,3,0,Candy_detector_data
00136,$GPGGA,112711.00,4859.41602,N,01556.87927,E,1,05,12.1,815.7,M,174.5,M,,*67,Created
00137,$GPGGA,112711.00,4859.41602,N,01556.87927,E,1,05,12.1,815.7,M,174.5,M,,*67,Forbidden
00138,$GPGGA,112711.00,4859.41602,N,01556.87927,E,1,05,7.9,815.7,M,16.7,M,,*6C,Forbidden
00139,$GPGGA,112711.00,4859.41602,N,01556.87927,E,1,05,7.9,815.7,M,16.7,M,,*6C,Forbidden
00140,$CANDY,599,17,0,3,0,Candy_detector_data
00141,$GPGGA,112727.00,4859.41211,N,01557.16919,E,1,06,12.1,715.1,M,174.4,M,,*6B,Forbidden
00142,$GPGGA,112727.00,4859.41211,N,01557.16919,E,1,06,12.1,715.1,M,174.4,M,,*6B,Forbidden
00143,$GPGGA,112727.00,4859.41211,N,01557.16919,E,1,06,7.9,715.1,M,17.2,M,,*65,Forbidden
00144,$GPGGA,112727.00,4859.41211,N,01557.16919,E,1,06,7.9,715.1,M,17.2,M,,*65,Forbidden
00145,$CANDY,599,17,0,3,0,Candy_detector_data
00146,$GPGGA,112743.00,4859.40967,N,01557.38196,E,1,06,12.1,625.3,M,174.5,M,,*60,Forbidden
00147,$GPGGA,112743.00,4859.40967,N,01557.38196,E,1,06,12.1,625.3,M,174.5,M,,*60,Forbidden
00148,$GPGGA,112743.00,4859.40967,N,01557.38196,E,1,06,7.9,625.3,M,17.3,M,,*6E,Forbidden
00149,$GPGGA,112743.00,4859.40967,N,01557.38196,E,1,06,7.9,625.3,M,17.3,M,,*6E,Forbidden
00150,$CANDY,599,17,0,3,0,Candy_detector_data
00151,$GPGGA,112800.00,4859.39111,N,01557.59021,E,1,08,12.1,525.2,M,174.7,M,,*6B,Created
00152,$GPGGA,112800.00,4859.39111,N,01557.59021,E,1,08,12.1,525.2,M,174.7,M,,*6B,Forbidden
00153,$GPGGA,112800.00,4859.39111,N,01557.59021,E,1,08,7.9,525.2,M,15.8,M,,*6E,Forbidden
00154,$GPGGA,112800.00,4859.39111,N,01557.59021,E,1,08,7.9,525.2,M,15.8,M,,*6E,Forbidden
00155,$CANDY,599,17,0,3,0,Candy_detector_data
00156,$GPGGA,112816.00,4859.37695,N,01557.75586,E,1,08,12.1,425.0,M,174.5,M,,*6E,Created
00157,$GPGGA,112816.00,4859.37695,N,01557.75586,E,1,08,12.1,425.0,M,174.5,M,,*6E,Forbidden
00158,$GPGGA,112816.00,4859.37695,N,01557.75586,E,1,08,7.9,425.0,M,18.2,M,,*6E,Forbidden
00159,$GPGGA,112816.00,4859.37695,N,01557.75586,E,1,08,7.9,425.0,M,18.2,M,,*6E,Forbidden
00160,$CANDY,599,17,0,3,0,Candy_detector_data
