$GPTXT,01,01,02,u-blox ag - www.u-blox.com*50
$GPTXT,01,01,02,HW  UBX-G60xx  00040007 EFFBFFFFp*25
$GPTXT,01,01,02,ROM CORE 7.03 (45969) Mar 17 2011 16:18:34*59
$GPTXT,01,01,02,ANTSUPERV=AC SD PDoS SR*20
$GPTXT,01,01,02,ANTSTATUS=DONTKNOW*33
$GPRMC,080021.46,V,,,,,,,180317,,,N*78
$GPVTG,,,,,,,,,N*30
$GPGGA,080021.46,,,,,0,00,99.99,,,,,,*6F
$GPGSA,A,1,,,,,,,,,,,,,99.99,99.99,99.99*30
$GPGSV,3,1,10,02,34,265,,05,31,304,,06,24,216,,07,74,138,*75
$GPGSV,3,2,10,09,61,076,,16,18,039,,23,24,084,,26,02,019,*77
$GPGSV,3,3,10,29,03,327,,30,42,200,*71
$GPGLL,,,,,080021.46,V,N*43
$GPRMC,080022.00,V,,,,,,,180317,,,N*79
$GPVTG,,,,,,,,,N*30
$GPGGA,080022.00,,,,,0,00,99.99,,,,,,*6E
$GPGSA,A,1,,,,,,,,,,,,,99.99,99.99,99.99*30
$GPGSV,3,1,10,02,34,265,,05,31,304,,06,24,216,,07,74,138,*75
$GPGSV,3,2,10,09,61,076,,16,18,039,,23,24,084,,26,02,019,*77
$GPGSV,3,3,10,29,03,327,,30,42,200,*71
$GPGLL,,,,,080022.00,V,N*42
$GPTXT,01,01,02,ANTSTATUS=INIT*25
$GPRMC,080023.00,V,,,,,,,180317,,,N*78
$GPVTG,,,,,,,,,N*30
$GPGGA,080023.00,,,,,0,00,99.99,,,,,,*6F
$GPGSA,A,1,,,,,,,,,,,,,99.99,99.99,99.99*30
$GPGSV,3,1,10,02,34,265,,05,31,304,,06,24,216,,07,74,138,*75
$GPGSV,3,2,10,09,61,076,,16,18,039,,23,24,084,36,26,02,019,*72
$GPGSV,3,3,10,29,03,327,,30,42,200,*71
$GPGLL,,,,,080023.00,V,N*43
$GPTXT,01,01,02,ANTSTATUS=OK*3B
$GPRMC,080024.00,V,,,,,,,180317,,,N*7F
$GPVTG,,,,,,,,,N*30
$GPGGA,080024.00,,,,,0,00,99.99,,,,,,*68
$GPGSA,A,1,,,,,,,,,,,,,99.99,99.99,99.99*30
$GPGSV,3,1,10,02,34,265,,05,31,304,,06,24,216,,07,74,138,*75
$GPGSV,3,2,10,09,61,076,36,16,18,039,,23,24,084,36,26,02,019,*77
$GPGSV,3,3,10,29,03,327,,30,42,200,*71
$GPGLL,,,,,080024.00,V,N*44
$GPRMC,080025.00,V,,,,,,,180317,,,N*7E
$GPVTG,,,,,,,,,N*30
$GPGGA,080025.00,,,,,0,00,99.99,,,,,,*69
$GPGSA,A,1,,,,,,,,,,,,,99.99,99.99,99.99*30
$GPGSV,3,1,10,02,34,265,,05,31,304,,06,24,216,,07,74,138,*75
$GPGSV,3,2,10,09,61,076,32,16,18,039,,23,24,084,37,26,02,019,*72
$GPGSV,3,3,10,29,03,327,,30,42,200,*71
$GPGLL,,,,,080025.00,V,N*45
$GPRMC,080026.00,V,,,,,,,180317,,,N*7D
$GPVTG,,,,,,,,,N*30
$GPGGA,080026.00,,,,,0,00,99.99,,,,,,*6A
$GPGSA,A,1,,,,,,,,,,,,,99.99,99.99,99.99*30
$GPGSV,3,1,10,02,34,265,,05,31,304,,06,24,216,,07,74,138,*75
$GPGSV,3,2,10,09,61,076,34,16,18,039,,23,24,084,37,26,02,019,*74
$GPGSV,3,3,10,29,03,327,,30,42,200,*71
$GPGLL,,,,,080026.00,V,N*46
$GPRMC,080027.00,V,,,,,,,180317,,,N*7C
$GPVTG,,,,,,,,,N*30
$GPGGA,080027.00,,,,,0,00,99.99,,,,,,*6B
$GPGSA,A,1,,,,,,,,,,,,,99.99,99.99,99.99*30
$GPGSV,3,1,10,02,34,265,,05,31,304,,06,24,216,,07,74,138,*75
$GPGSV,3,2,10,09,61,076,35,16,18,039,34,23,24,084,38,26,02,019,*7D
$GPGSV,3,3,10,29,03,327,,30,42,200,*71
$GPGLL,,,,,080027.00,V,N*47
$GPRMC,080028.00,V,,,,,,,180317,,,N*73
$GPVTG,,,,,,,,,N*30
$GPGGA,080028.00,,,,,0,00,99.99,,,,,,*64
$GPGSA,A,1,,,,,,,,,,,,,99.99,99.99,99.99*30
$GPGSV,3,1,10,02,34,265,,05,31,304,33,06,24,216,,07,74,138,*75
$GPGSV,3,2,10,09,61,076,37,16,18,039,34,23,24,084,38,26,02,019,*7F
$GPGSV,3,3,10,29,03,327,,30,42,200,*71
$GPGLL,,,,,080028.00,V,N*48
$GPRMC,080029.13,V,,,,,,,180317,,,N*70
$GPVTG,,,,,,,,,N*30
$GPGGA,080029.13,,,,,0,00,99.99,,,,,,*67
$GPGSA,A,1,,,,,,,,,,,,,99.99,99.99,99.99*30
$GPGSV,3,1,10,02,34,265,,05,31,304,33,06,24,216,32,07,74,137,*7B
$GPGSV,3,2,10,09,61,076,37,16,18,039,34,23,24,084,38,26,02,019,*7F
$GPGSV,3,3,10,29,03,327,,30,42,200,*71
$GPGLL,,,,,080029.13,V,N*4B
$GPRMC,080030.00,V,,,,,,,180317,,,N*7A
$GPVTG,,,,,,,,,N*30
$GPGGA,080030.00,,,,,0,00,99.99,,,,,,*6D
$GPGSA,A,1,,,,,,,,,,,,,99.99,99.99,99.99*30
$GPGSV,3,1,10,02,34,265,,05,31,304,32,06,24,216,31,07,74,137,*79
$GPGSV,3,2,10,09,61,076,39,16,18,039,35,23,24,084,39,26,02,019,*71
$GPGSV,3,3,10,29,03,327,,30,42,200,*71
$GPGLL,,,,,080030.00,V,N*41
$GPRMC,080031.00,V,,,,,,,180317,,,N*7B
$GPVTG,,,,,,,,,N*30
$GPGGA,080031.00,,,,,0,00,99.99,,,,,,*6C
$GPGSA,A,1,,,,,,,,,,,,,99.99,99.99,99.99*30
$GPGSV,3,1,10,02,34,265,,05,31,304,31,06,24,216,31,07,74,137,*7A
$GPGSV,3,2,10,09,61,076,38,16,18,039,35,23,24,084,37,26,02,019,*7E
$GPGSV,3,3,10,29,03,327,,30,42,200,*71
$GPGLL,,,,,080031.00,V,N*40
$GPRMC,080032.00,V,,,,,,,180317,,,N*78
$GPVTG,,,,,,,,,N*30
$GPGGA,080032.00,,,,,0,00,99.99,,,,,,*6F
$GPGSA,A,1,,,,,,,,,,,,,99.99,99.99,99.99*30
$GPGSV,3,1,10,02,34,265,,05,31,304,31,06,24,215,31,07,74,135,*7B
$GPGSV,3,2,10,09,60,075,38,16,18,039,34,23,23,084,38,26,01,019,*76
$GPGSV,3,3,10,29,03,327,28,30,42,200,*7B
$GPGLL,,,,,080032.00,V,N*43
$GPRMC,080033.00,V,,,,,,,180317,,,N*79
$GPVTG,,,,,,,,,N*30
$GPGGA,080033.00,,,,,0,00,99.99,,,,,,*6E
$GPGSA,A,1,,,,,,,,,,,,,99.99,99.99,99.99*30
$GPGSV,3,1,10,02,34,265,30,05,31,304,31,06,24,215,32,07,74,135,*7B
$GPGSV,3,2,10,09,60,075,38,16,18,039,33,23,23,084,38,26,01,019,27*74
$GPGSV,3,3,10,29,03,327,,30,42,200,31*73
$GPGLL,,,,,080033.00,V,N*42
$GPRMC,080034.00,V,,,,,,,180317,,,N*7E
$GPVTG,,,,,,,,,N*30
$GPGGA,080034.00,,,,,0,00,99.99,,,,,,*69
$GPGSA,A,1,,,,,,,,,,,,,99.99,99.99,99.99*30
$GPGSV,3,1,10,02,34,265,29,05,31,304,31,06,24,215,31,07,74,135,*70
$GPGSV,3,2,10,09,60,075,38,16,18,039,34,23,23,084,39,26,01,019,28*7D
$GPGSV,3,3,10,29,03,327,,30,42,200,30*72
$GPGLL,,,,,080034.00,V,N*45
$GPRMC,080035.00,V,,,,,,,180317,,,N*7F
$GPVTG,,,,,,,,,N*30
$GPGGA,080035.00,,,,,0,00,99.99,,,,,,*68
$GPGSA,A,1,,,,,,,,,,,,,99.99,99.99,99.99*30
$GPGSV,3,1,10,02,34,265,30,05,31,304,33,06,24,215,31,07,74,135,*7A
$GPGSV,3,2,10,09,60,075,38,16,18,039,34,23,23,084,40,26,01,019,28*73
$GPGSV,3,3,10,29,03,327,,30,42,200,30*72
$GPGLL,,,,,080035.00,V,N*44
$GPRMC,080036.00,V,,,,,,,180317,,,N*7C
$GPVTG,,,,,,,,,N*30
$GPGGA,080036.00,,,,,0,00,99.99,,,,,,*6B
$GPGSA,A,1,,,,,,,,,,,,,99.99,99.99,99.99*30
$GPGSV,3,1,10,02,34,265,30,05,31,304,33,06,24,215,31,07,74,135,*7A
$GPGSV,3,2,10,09,60,075,37,16,18,039,34,23,23,084,40,26,01,019,28*7C
$GPGSV,3,3,10,29,03,327,,30,42,200,30*72
$GPGLL,,,,,080036.00,V,N*47
$GPRMC,080037.00,V,,,,,,,180317,,,N*7D
$GPVTG,,,,,,,,,N*30
$GPGGA,080037.00,,,,,0,00,99.99,,,,,,*6A
$GPGSA,A,1,,,,,,,,,,,,,99.99,99.99,99.99*30
$GPGSV,3,1,10,02,34,265,29,05,31,304,33,06,24,215,30,07,74,135,*73
$GPGSV,3,2,10,09,60,075,37,16,18,039,37,23,23,084,38,26,01,019,26*7E
$GPGSV,3,3,10,29,03,327,26,30,42,200,29*7E
$GPGLL,,,,,080037.00,V,N*46
$GPRMC,080038.00,V,,,,,,,180317,,,N*72
$GPVTG,,,,,,,,,N*30
$GPGGA,080038.00,,,,,0,00,99.99,,,,,,*65
$GPGSA,A,1,,,,,,,,,,,,,99.99,99.99,99.99*30
$GPGSV,3,1,10,02,34,265,29,05,31,304,32,06,24,215,30,07,74,135,*72
$GPGSV,3,2,10,09,60,075,37,16,18,039,33,23,23,084,37,26,01,019,26*75
$GPGSV,3,3,10,29,03,327,26,30,42,200,29*7E
$GPGLL,,,,,080038.00,V,N*49
$GPRMC,080039.00,V,,,,,,,180317,,,N*73
$GPVTG,,,,,,,,,N*30
$GPGGA,080039.00,,,,,0,00,99.99,,,,,,*64
$GPGSA,A,1,,,,,,,,,,,,,99.99,99.99,99.99*30
$GPGSV,3,1,10,02,34,265,30,05,31,304,32,06,24,215,30,07,74,135,*7A
$GPGSV,3,2,10,09,60,075,37,16,18,039,34,23,23,084,39,26,01,019,27*7D
$GPGSV,3,3,10,29,03,327,25,30,42,200,29*7D
$GPGLL,,,,,080039.00,V,N*48
$GPRMC,080040.00,V,,,,,,,180317,,,N*7D
$GPVTG,,,,,,,,,N*30
$GPGGA,080040.00,,,,,0,00,99.99,,,,,,*6A
$GPGSA,A,1,,,,,,,,,,,,,99.99,99.99,99.99*30
$GPGSV,3,1,10,02,34,265,30,05,31,304,31,06,24,215,30,07,74,135,*79
$GPGSV,3,2,10,09,60,075,35,16,18,039,34,23,23,084,39,26,01,019,28*70
$GPGSV,3,3,10,29,03,327,25,30,42,200,31*74
$GPGLL,,,,,080040.00,V,N*46
$GPRMC,080041.00,V,,,,,,,180317,,,N*7C
$GPVTG,,,,,,,,,N*30
$GPGGA,080041.00,,,,,0,00,99.99,,,,,,*6B
$GPGSA,A,1,,,,,,,,,,,,,99.99,99.99,99.99*30
$GPGSV,3,1,10,02,34,265,30,05,31,304,31,06,24,215,30,07,74,135,*79
$GPGSV,3,2,10,09,60,075,35,16,18,039,33,23,23,084,39,26,01,019,28*77
$GPGSV,3,3,10,29,03,327,24,30,42,200,31*75
$GPGLL,,,,,080041.00,V,N*47
$GPRMC,080042.00,V,,,,,,,180317,,,N*7F
$GPVTG,,,,,,,,,N*30
$GPGGA,080042.00,,,,,0,00,99.99,,,,,,*68
$GPGSA,A,1,,,,,,,,,,,,,99.99,99.99,99.99*30
$GPGSV,3,1,10,02,34,265,29,05,31,304,31,06,24,215,30,07,74,135,*71
$GPGSV,3,2,10,09,60,075,34,16,18,039,35,23,23,084,41,26,01,019,27*70
$GPGSV,3,3,10,29,03,327,24,30,42,200,30*74
$GPGLL,,,,,080042.00,V,N*44
$GPRMC,080043.00,V,,,,,,,180317,,,N*7E
$GPVTG,,,,,,,,,N*30
$GPGGA,080043.00,,,,,0,00,99.99,,,,,,*69
$GPGSA,A,1,,,,,,,,,,,,,99.99,99.99,99.99*30
$GPGSV,3,1,10,02,34,265,30,05,31,304,32,06,24,215,30,07,74,135,*7A
$GPGSV,3,2,10,09,60,075,36,16,18,039,37,23,23,084,40,26,01,019,26*70
$GPGSV,3,3,10,29,03,327,25,30,42,200,30*75
$GPGLL,,,,,080043.00,V,N*45
$GPRMC,080044.00,V,,,,,,,180317,,,N*79
$GPVTG,,,,,,,,,N*30
$GPGGA,080044.00,,,,,0,00,99.99,,,,,,*6E
$GPGSA,A,1,,,,,,,,,,,,,99.99,99.99,99.99*30
$GPGSV,3,1,10,02,34,265,30,05,31,304,32,06,24,215,31,07,74,135,*7B
$GPGSV,3,2,10,09,60,075,36,16,18,039,34,23,23,084,40,26,01,019,26*73
$GPGSV,3,3,10,29,03,327,26,30,42,200,30*76
$GPGLL,,,,,080044.00,V,N*42
$GPRMC,080045.00,V,,,,,,,180317,,,N*78
$GPVTG,,,,,,,,,N*30
$GPGGA,080045.00,,,,,0,00,99.99,,,,,,*6F
$GPGSA,A,1,,,,,,,,,,,,,99.99,99.99,99.99*30
$GPGSV,3,1,10,02,34,265,30,05,31,304,32,06,24,215,30,07,74,135,19*72
$GPGSV,3,2,10,09,60,075,35,16,18,039,37,23,23,084,40,26,01,019,26*73
$GPGSV,3,3,10,29,03,327,26,30,42,200,29*7E
$GPGLL,,,,,080045.00,V,N*43
$GPRMC,080046.00,V,,,,,,,180317,,,N*7B
$GPVTG,,,,,,,,,N*30
$GPGGA,080046.00,,,,,0,00,99.99,,,,,,*6C
$GPGSA,A,1,,,,,,,,,,,,,99.99,99.99,99.99*30
$GPGSV,3,1,10,02,34,265,30,05,31,304,32,06,24,215,30,07,74,135,19*72
$GPGSV,3,2,10,09,60,075,35,16,18,039,36,23,23,084,41,26,01,019,25*70
$GPGSV,3,3,10,29,03,327,24,30,42,200,29*7C
$GPGLL,,,,,080046.00,V,N*40
$GPRMC,080047.00,V,,,,,,,180317,,,N*7A
$GPVTG,,,,,,,,,N*30
$GPGGA,080047.00,,,,,0,00,99.99,,,,,,*6D
$GPGSA,A,1,,,,,,,,,,,,,99.99,99.99,99.99*30
$GPGSV,3,1,10,02,34,265,30,05,31,304,32,06,24,215,30,07,74,135,19*72
$GPGSV,3,2,10,09,60,075,35,16,18,039,32,23,23,084,41,26,01,019,24*75
$GPGSV,3,3,10,29,03,327,25,30,42,200,30*75
$GPGLL,,,,,080047.00,V,N*41
$GPRMC,080048.00,V,,,,,,,180317,,,N*75
$GPVTG,,,,,,,,,N*30
$GPGGA,080048.00,,,,,0,00,99.99,,,,,,*62
$GPGSA,A,1,,,,,,,,,,,,,99.99,99.99,99.99*30
$GPGSV,3,1,10,02,34,265,29,05,31,304,33,06,24,215,31,07,74,135,18*7B
$GPGSV,3,2,10,09,60,075,35,16,18,039,37,23,23,084,42,26,01,019,24*73
$GPGSV,3,3,10,29,03,327,25,30,42,200,30*75
$GPGLL,,,,,080048.00,V,N*4E
$GPRMC,080049.00,V,,,,,,,180317,,,N*74
$GPVTG,,,,,,,,,N*30
$GPGGA,080049.00,,,,,0,00,99.99,,,,,,*63
$GPGSA,A,1,,,,,,,,,,,,,99.99,99.99,99.99*30
$GPGSV,3,1,10,02,34,265,29,05,31,304,33,06,24,215,30,07,74,135,18*7A
$GPGSV,3,2,10,09,60,075,38,16,18,039,36,23,23,084,43,26,01,019,25*7F
$GPGSV,3,3,10,29,03,327,24,30,42,200,29*7C
$GPGLL,,,,,080049.00,V,N*4F
$GPRMC,080050.00,V,,,,,,,180317,,,N*7C
$GPVTG,,,,,,,,,N*30
$GPGGA,080050.00,,,,,0,00,99.99,,,,,,*6B
$GPGSA,A,1,,,,,,,,,,,,,99.99,99.99,99.99*30
$GPGSV,3,1,10,02,34,265,29,05,31,304,33,06,24,215,30,07,74,135,*73
$GPGSV,3,2,10,09,60,075,34,16,18,039,40,23,23,084,40,26,01,019,25*71
$GPGSV,3,3,10,29,03,327,24,30,42,200,29*7C
$GPGLL,,,,,080050.00,V,N*47
$GPRMC,080051.00,V,,,,,,,180317,,,N*7D
$GPVTG,,,,,,,,,N*30
$GPGGA,080051.00,,,,,0,00,99.99,,,,,,*6A
$GPGSA,A,1,,,,,,,,,,,,,99.99,99.99,99.99*30
$GPGSV,3,1,10,02,34,265,25,05,31,304,33,06,24,215,29,07,74,135,23*76
$GPGSV,3,2,10,09,60,075,32,16,18,039,38,23,23,084,37,26,01,019,22*7F
$GPGSV,3,3,10,29,03,327,23,30,42,200,20*72
$GPGLL,,,,,080051.00,V,N*46
$GPRMC,080052.00,V,,,,,,,180317,,,N*7E
$GPVTG,,,,,,,,,N*30
$GPGGA,080052.00,,,,,0,00,99.99,,,,,,*69
$GPGSA,A,1,,,,,,,,,,,,,99.99,99.99,99.99*30
$GPGSV,3,1,10,02,34,265,25,05,31,304,32,06,24,215,29,07,74,135,23*77
$GPGSV,3,2,10,09,60,075,31,16,18,039,39,23,23,084,40,26,01,019,22*7D
$GPGSV,3,3,10,29,03,327,23,30,42,200,22*70
$GPGLL,,,,,080052.00,V,N*45
$GPRMC,080053.00,V,,,,,,,180317,,,N*7F
$GPVTG,,,,,,,,,N*30
$GPGGA,080053.00,,,,,0,00,99.99,,,,,,*68
$GPGSA,A,1,,,,,,,,,,,,,99.99,99.99,99.99*30
$GPGSV,3,1,10,02,34,265,25,05,31,304,31,06,24,215,29,07,74,135,23*74
$GPGSV,3,2,10,09,60,075,32,16,18,039,38,23,23,084,43,26,01,019,23*7D
$GPGSV,3,3,10,29,03,327,22,30,42,200,30*72
$GPGLL,,,,,080053.00,V,N*44
$GPRMC,080054.00,V,,,,,,,180317,,,N*78
$GPVTG,,,,,,,,,N*30
$GPGGA,080054.00,,,,,0,00,99.99,,,,,,*6F
$GPGSA,A,1,,,,,,,,,,,,,99.99,99.99,99.99*30
$GPGSV,3,1,10,02,34,265,24,05,31,304,31,06,24,215,30,07,74,135,24*7A
$GPGSV,3,2,10,09,60,075,33,16,18,039,32,23,23,084,43,26,01,019,23*76
$GPGSV,3,3,10,29,03,327,22,30,42,200,31*73
$GPGLL,,,,,080054.00,V,N*43
$GPRMC,080055.00,V,,,,,,,180317,,,N*79
$GPVTG,,,,,,,,,N*30
$GPGGA,080055.00,,,,,0,00,99.99,,,,,,*6E
$GPGSA,A,1,,,,,,,,,,,,,99.99,99.99,99.99*30
$GPGSV,3,1,10,02,34,265,23,05,31,304,30,06,24,215,30,07,74,135,23*7B
$GPGSV,3,2,10,09,60,075,36,16,18,039,37,23,23,084,41,26,01,019,22*75
$GPGSV,3,3,10,29,03,327,21,30,42,200,31*70
$GPGLL,,,,,080055.00,V,N*42
$GPRMC,080056.00,V,,,,,,,180317,,,N*7A
$GPVTG,,,,,,,,,N*30
$GPGGA,080056.00,,,,,0,00,99.99,,,,,,*6D
$GPGSA,A,1,,,,,,,,,,,,,99.99,99.99,99.99*30
$GPGSV,3,1,10,02,34,265,22,05,31,304,30,06,24,215,30,07,74,135,24*7D
$GPGSV,3,2,10,09,60,075,36,16,18,039,35,23,23,084,42,26,01,019,25*73
$GPGSV,3,3,10,29,03,327,21,30,42,200,31*70
$GPGLL,,,,,080056.00,V,N*41
$GPRMC,080057.00,V,,,,,,,180317,,,N*7B
$GPVTG,,,,,,,,,N*30
$GPGGA,080057.00,,,,,0,00,99.99,,,,,,*6C
$GPGSA,A,1,,,,,,,,,,,,,99.99,99.99,99.99*30
$GPGSV,3,1,10,02,34,265,21,05,31,304,28,06,24,215,29,07,74,135,25*7E
$GPGSV,3,2,10,09,60,075,35,16,18,039,35,23,23,084,39,26,01,019,27*7E
$GPGSV,3,3,10,29,03,327,23,30,42,200,30*73
$GPGLL,,,,,080057.00,V,N*40
$GPRMC,080058.00,V,,,,,,,180317,,,N*74
$GPVTG,,,,,,,,,N*30
$GPGGA,080058.00,,,,,0,00,99.99,,,,,,*63
$GPGSA,A,1,,,,,,,,,,,,,99.99,99.99,99.99*30
$GPGSV,3,1,10,02,34,265,21,05,31,304,28,06,24,215,28,07,74,135,25*7F
$GPGSV,3,2,10,09,60,075,35,16,18,039,37,23,23,084,41,26,01,019,27*73
$GPGSV,3,3,10,29,03,327,23,30,42,200,31*72
$GPGLL,,,,,080058.00,V,N*4F
$GPRMC,080059.00,V,,,,,,,180317,,,N*75
$GPVTG,,,,,,,,,N*30
$GPGGA,080059.00,,,,,0,00,99.99,,,,,,*62
$GPGSA,A,1,,,,,,,,,,,,,99.99,99.99,99.99*30
$GPGSV,3,1,10,02,34,265,20,05,31,304,29,06,24,215,29,07,74,135,24*7F
$GPGSV,3,2,10,09,60,075,35,16,18,039,39,23,23,084,41,26,01,019,26*7C
$GPGSV,3,3,10,29,03,327,24,30,42,200,32*76
$GPGLL,,,,,080059.00,V,N*4E
$GPRMC,080100.00,A,4943.04896,N,01405.86572,E,0.182,,180317,,,A*79
$GPVTG,,T,,M,0.182,N,0.337,K,A*2F
$GPGGA,080100.00,4943.04896,N,01405.86572,E,1,09,1.20,452.7,M,44.6,M,,*5A
$GPGSA,A,3,07,09,30,05,23,06,16,26,29,,,,2.56,1.20,2.27*00
$GPGSV,3,1,10,02,34,265,,05,31,304,29,06,24,215,29,07,74,135,23*7A
$GPGSV,3,2,10,09,60,075,35,16,17,039,37,23,23,084,41,26,01,019,25*7E
$GPGSV,3,3,10,29,03,327,25,30,42,200,31*74
$GPGLL,4943.04896,N,01405.86572,E,080100.00,A,A*67
$GPRMC,080101.00,A,4943.04925,N,01405.86524,E,0.048,,180317,,,A*75
$GPVTG,,T,,M,0.048,N,0.089,K,A*2E
$GPGGA,080101.00,4943.04925,N,01405.86524,E,1,05,1.20,453.6,M,44.6,M,,*5D
$GPGSA,A,3,09,05,23,06,16,,,,,,,,2.56,1.20,2.27*0B
$GPGSV,3,1,10,02,34,265,,05,31,304,28,06,24,215,29,07,74,134,23*7A
$GPGSV,3,2,10,09,60,075,37,16,17,039,40,23,23,084,44,26,01,019,25*79
$GPGSV,3,3,10,29,03,327,25,30,42,200,31*74
$GPGLL,4943.04925,N,01405.86524,E,080101.00,A,A*6C
$GPRMC,080102.00,A,4943.04875,N,01405.86519,E,0.021,,180317,,,A*73
$GPVTG,,T,,M,0.021,N,0.039,K,A*2A
$GPGGA,080102.00,4943.04875,N,01405.86519,E,1,05,1.20,453.0,M,44.6,M,,*52
$GPGSA,A,3,09,05,23,06,16,,,,,,,,2.56,1.20,2.27*0B
$GPGSV,3,1,10,02,34,265,,05,31,304,27,06,24,215,29,07,74,134,23*75
$GPGSV,3,2,10,09,60,075,37,16,17,039,37,23,23,084,43,26,01,019,25*7E
$GPGSV,3,3,10,29,03,327,25,30,42,200,31*74
$GPGLL,4943.04875,N,01405.86519,E,080102.00,A,A*65
$GPRMC,080103.00,A,4943.04831,N,01405.86527,E,0.164,,180317,,,A*7F
$GPVTG,,T,,M,0.164,N,0.303,K,A*20
$GPGGA,080103.00,4943.04831,N,01405.86527,E,1,05,1.20,452.4,M,44.6,M,,*5B
$GPGSA,A,3,09,05,23,06,16,,,,,,,,2.56,1.20,2.27*0B
$GPGSV,3,1,10,02,34,265,,05,31,304,27,06,24,215,29,07,74,134,23*75
$GPGSV,3,2,10,09,60,075,35,16,17,039,36,23,23,084,43,26,01,019,24*7C
$GPGSV,3,3,10,29,03,327,25,30,42,200,31*74
$GPGLL,4943.04831,N,01405.86527,E,080103.00,A,A*69
$GPRMC,080104.00,A,4943.04799,N,01405.86540,E,0.107,,180317,,,A*71
$GPVTG,,T,,M,0.107,N,0.199,K,A*24
$GPGGA,080104.00,4943.04799,N,01405.86540,E,1,05,1.20,451.8,M,44.6,M,,*5F
$GPGSA,A,3,09,05,23,06,16,,,,,,,,2.56,1.20,2.27*0B
$GPGSV,3,1,10,02,34,265,,05,31,304,27,06,24,215,27,07,74,134,21*79
$GPGSV,3,2,10,09,60,075,33,16,17,039,36,23,23,084,44,26,01,019,25*7C
$GPGSV,3,3,10,29,03,327,25,30,42,200,30*75
$GPGLL,4943.04799,N,01405.86540,E,080104.00,A,A*62
$GPRMC,080105.00,A,4943.04768,N,01405.86555,E,0.202,,180317,,,A*7C
$GPVTG,,T,,M,0.202,N,0.374,K,A*23
$GPGGA,080105.00,4943.04768,N,01405.86555,E,1,05,1.20,451.7,M,44.6,M,,*5B
$GPGSA,A,3,09,05,23,06,16,,,,,,,,2.56,1.20,2.27*0B
$GPGSV,3,1,10,02,34,265,,05,31,304,26,06,24,215,27,07,74,134,22*7B
$GPGSV,3,2,10,09,60,075,36,16,17,039,36,23,23,084,45,26,01,019,24*79
$GPGSV,3,3,10,29,03,327,24,30,42,200,28*7D
$GPGLL,4943.04768,N,01405.86555,E,080105.00,A,A*69
$GPRMC,080106.00,A,4943.04725,N,01405.86594,E,0.087,,180317,,,A*74
$GPVTG,,T,,M,0.087,N,0.162,K,A*29
$GPGGA,080106.00,4943.04725,N,01405.86594,E,1,05,1.20,451.4,M,44.6,M,,*5F
$GPGSA,A,3,09,05,23,06,16,,,,,,,,2.56,1.20,2.27*0B
$GPGSV,3,1,10,02,34,265,,05,31,304,26,06,24,215,27,07,74,134,21*78
$GPGSV,3,2,10,09,60,075,38,16,17,039,36,23,23,084,44,26,01,019,21*73
$GPGSV,3,3,10,29,03,327,22,30,42,200,28*7B
$GPGLL,4943.04725,N,01405.86594,E,080106.00,A,A*6E
$GPRMC,080107.00,A,4943.04682,N,01405.86639,E,0.040,,180317,,,A*76
$GPVTG,,T,,M,0.040,N,0.073,K,A*23
$GPGGA,080107.00,4943.04682,N,01405.86639,E,1,05,1.20,450.7,M,44.6,M,,*54
$GPGSA,A,3,09,05,23,06,16,,,,,,,,2.56,1.20,2.27*0B
$GPGSV,3,1,10,02,34,265,,05,31,304,27,06,24,215,28,07,74,134,20*77
$GPGSV,3,2,10,09,60,075,36,16,17,039,36,23,23,084,45,26,01,019,20*7D
$GPGSV,3,3,10,29,03,327,22,30,42,200,28*7B
$GPGLL,4943.04682,N,01405.86639,E,080107.00,A,A*67
$GPRMC,080108.00,A,4943.04638,N,01405.86673,E,0.071,,180317,,,A*74
$GPVTG,,T,,M,0.071,N,0.131,K,A*26
$GPGGA,080108.00,4943.04638,N,01405.86673,E,1,05,1.20,450.1,M,44.6,M,,*52
$GPGSA,A,3,09,05,23,06,16,,,,,,,,2.56,1.20,2.27*0B
$GPGSV,3,1,10,02,34,265,,05,31,304,28,06,24,215,29,07,74,134,22*7B
$GPGSV,3,2,10,09,60,075,35,16,17,039,37,23,23,084,44,26,01,019,22*7C
$GPGSV,3,3,10,29,03,327,23,30,42,200,29*7B
$GPGLL,4943.04638,N,01405.86673,E,080108.00,A,A*67
$GPRMC,080109.00,A,4943.04616,N,01405.86711,E,0.033,,180317,,,A*7A
$GPVTG,,T,,M,0.033,N,0.062,K,A*27
$GPGGA,080109.00,4943.04616,N,01405.86711,E,1,05,1.20,449.9,M,44.6,M,,*5A
$GPGSA,A,3,09,05,23,06,16,,,,,,,,2.56,1.20,2.27*0B
$GPGSV,3,1,10,02,34,265,,05,31,304,28,06,24,215,30,07,74,134,22*73
$GPGSV,3,2,10,09,60,075,36,16,17,039,38,23,23,084,44,26,01,019,23*71
$GPGSV,3,3,10,29,03,327,24,30,42,200,29*7C
$GPGLL,4943.04616,N,01405.86711,E,080109.00,A,A*6F
$GPRMC,080110.00,A,4943.04604,N,01405.86744,E,0.155,,180317,,,A*70
$GPVTG,,T,,M,0.155,N,0.287,K,A*2F
$GPGGA,080110.00,4943.04604,N,01405.86744,E,1,05,1.20,449.7,M,44.6,M,,*5F
$GPGSA,A,3,09,05,23,06,16,,,,,,,,2.56,1.20,2.27*0B
$GPGSV,3,1,10,02,34,265,,05,31,304,27,06,24,215,30,07,74,134,22*7C
$GPGSV,3,2,10,09,60,075,36,16,17,039,37,23,23,084,44,26,01,019,24*79
$GPGSV,3,3,10,29,03,327,25,30,42,200,29*7D
$GPGLL,4943.04604,N,01405.86744,E,080110.00,A,A*64
$GPRMC,080111.00,A,4943.04589,N,01405.86770,E,0.069,,180317,,,A*7E
$GPVTG,,T,,M,0.069,N,0.127,K,A*28
$GPGGA,080111.00,4943.04589,N,01405.86770,E,1,05,1.20,449.2,M,44.6,M,,*5A
$GPGSA,A,3,09,05,23,06,16,,,,,,,,2.56,1.20,2.27*0B
$GPGSV,3,1,10,02,34,265,,05,31,304,27,06,24,215,29,07,74,134,20*76
$GPGSV,3,2,10,09,60,075,37,16,17,039,37,23,23,084,44,26,01,019,24*78
$GPGSV,3,3,10,29,03,327,24,30,42,200,29*7C
$GPGLL,4943.04589,N,01405.86770,E,080111.00,A,A*64
$GPRMC,080112.00,A,4943.04576,N,01405.86779,E,0.041,,180317,,,A*7E
$GPVTG,,T,,M,0.041,N,0.075,K,A*24
$GPGGA,080112.00,4943.04576,N,01405.86779,E,1,05,1.20,448.8,M,44.6,M,,*5B
$GPGSA,A,3,09,05,23,06,16,,,,,,,,2.56,1.20,2.26*0A
$GPGSV,3,1,10,02,34,265,,05,31,304,27,06,24,215,29,07,74,134,19*7C
$GPGSV,3,2,10,09,60,075,37,16,17,039,37,23,23,084,44,26,01,019,25*79
$GPGSV,3,3,10,29,03,327,24,30,42,200,27*72
$GPGLL,4943.04576,N,01405.86779,E,080112.00,A,A*6E
$GPRMC,080113.00,A,4943.04560,N,01405.86791,E,0.209,,180317,,,A*70
$GPVTG,,T,,M,0.209,N,0.387,K,A*24
$GPGGA,080113.00,4943.04560,N,01405.86791,E,1,05,1.20,448.4,M,44.6,M,,*57
$GPGSA,A,3,09,05,23,06,16,,,,,,,,2.56,1.20,2.26*0A
$GPGSV,3,1,10,02,34,265,,05,31,304,28,06,24,215,29,07,74,134,18*72
$GPGSV,3,2,10,09,60,075,38,16,17,039,37,23,23,084,44,26,01,019,25*76
$GPGSV,3,3,10,29,03,327,24,30,42,200,27*72
$GPGLL,4943.04560,N,01405.86791,E,080113.00,A,A*6E
$GPRMC,080114.00,A,4943.04554,N,01405.86794,E,0.119,,180317,,,A*77
$GPVTG,,T,,M,0.119,N,0.221,K,A*2B
$GPGGA,080114.00,4943.04554,N,01405.86794,E,1,05,1.20,448.0,M,44.6,M,,*56
$GPGSA,A,3,09,05,23,06,16,,,,,,,,2.56,1.20,2.26*0A
$GPGSV,3,1,10,02,34,265,,05,31,304,28,06,24,215,30,07,74,134,18*7A
$GPGSV,3,2,10,09,60,075,38,16,17,039,36,23,23,084,43,26,01,019,24*71
$GPGSV,3,3,10,29,03,327,22,30,42,200,27*74
$GPGLL,4943.04554,N,01405.86794,E,080114.00,A,A*6B
$GPRMC,080115.00,A,4943.04557,N,01405.86795,E,0.184,,180317,,,A*70
$GPVTG,,T,,M,0.184,N,0.341,K,A*28
$GPGGA,080115.00,4943.04557,N,01405.86795,E,1,05,1.20,447.7,M,44.6,M,,*5D
$GPGSA,A,3,09,05,23,06,16,,,,,,,,2.56,1.20,2.26*0A
$GPGSV,3,1,10,02,34,265,,05,31,304,29,06,24,215,30,07,74,134,18*7B
$GPGSV,3,2,10,09,60,075,39,16,17,039,39,23,23,084,45,26,01,019,23*7E
$GPGSV,3,3,10,29,03,327,22,30,42,200,28*7B
$GPGLL,4943.04557,N,01405.86795,E,080115.00,A,A*68
$GPRMC,080116.00,A,4943.04562,N,01405.86794,E,0.117,,180317,,,A*7E
$GPVTG,,T,,M,0.117,N,0.216,K,A*21
$GPGGA,080116.00,4943.04562,N,01405.86794,E,1,05,1.20,446.8,M,44.6,M,,*57
$GPGSA,A,3,09,05,23,06,16,,,,,,,,2.56,1.20,2.26*0A
$GPGSV,3,1,10,02,34,265,,05,31,304,28,06,24,215,30,07,74,134,18*7A
$GPGSV,3,2,10,09,60,075,39,16,17,039,37,23,23,084,43,26,01,019,22*77
$GPGSV,3,3,10,29,03,327,22,30,42,200,28*7B
$GPGLL,4943.04562,N,01405.86794,E,080116.00,A,A*6C
$GPRMC,080117.00,A,4943.04583,N,01405.86794,E,0.170,,180317,,,A*71
$GPVTG,,T,,M,0.170,N,0.315,K,A*22
$GPGGA,080117.00,4943.04583,N,01405.86794,E,1,05,1.20,446.9,M,44.6,M,,*58
$GPGSA,A,3,09,05,23,06,16,,,,,,,,2.56,1.20,2.26*0A
$GPGSV,3,1,10,02,34,265,,05,31,304,28,06,24,215,31,07,74,134,20*70
$GPGSV,3,2,10,09,60,075,37,16,17,039,38,23,23,084,40,26,01,019,19*7D
$GPGSV,3,3,10,29,03,327,22,30,42,200,28*7B
$GPGLL,4943.04583,N,01405.86794,E,080117.00,A,A*62
$GPRMC,080118.00,A,4943.04605,N,01405.86790,E,0.136,,180317,,,A*75
$GPVTG,,T,,M,0.136,N,0.252,K,A*22
$GPGGA,080118.00,4943.04605,N,01405.86790,E,1,05,1.20,446.3,M,44.6,M,,*54
$GPGSA,A,3,09,05,23,06,16,,,,,,,,2.56,1.20,2.26*0A
$GPGSV,3,1,10,02,34,265,,05,31,304,28,06,24,215,30,07,74,134,20*71
$GPGSV,3,2,10,09,60,075,39,16,17,039,39,23,23,084,43,26,01,019,17*7F
$GPGSV,3,3,10,29,03,327,23,30,42,200,28*7A
$GPGLL,4943.04605,N,01405.86790,E,080118.00,A,A*64
$GPRMC,080119.00,A,4943.04616,N,01405.86793,E,0.174,,180317,,,A*73
$GPVTG,,T,,M,0.174,N,0.322,K,A*22
$GPGGA,080119.00,4943.04616,N,01405.86793,E,1,05,1.20,446.0,M,44.6,M,,*57
$GPGSA,A,3,09,05,23,06,16,,,,,,,,2.56,1.20,2.26*0A
$GPGSV,3,1,10,02,34,265,,05,31,304,30,06,24,215,31,07,74,134,20*79
$GPGSV,3,2,10,09,60,075,37,16,17,039,38,23,23,084,43,26,01,019,17*70
$GPGSV,3,3,10,29,03,327,25,30,42,200,28*7C
$GPGLL,4943.04616,N,01405.86793,E,080119.00,A,A*64
$GPRMC,080120.00,A,4943.04626,N,01405.86801,E,0.091,,180317,,,A*74
$GPVTG,,T,,M,0.091,N,0.169,K,A*25
$GPGGA,080120.00,4943.04626,N,01405.86801,E,1,05,1.20,446.0,M,44.6,M,,*5A
$GPGSA,A,3,09,05,23,06,16,,,,,,,,2.56,1.20,2.26*0A
$GPGSV,3,1,10,02,34,265,,05,31,304,30,06,24,215,31,07,74,134,20*79
$GPGSV,3,2,10,09,60,075,37,16,17,039,37,23,23,084,44,26,01,019,17*78
$GPGSV,3,3,10,29,03,327,26,30,42,200,27*70
$GPGLL,4943.04626,N,01405.86801,E,080120.00,A,A*69
$GPRMC,080121.00,A,4943.04618,N,01405.86807,E,0.093,,180317,,,A*7C
$GPVTG,,T,,M,0.093,N,0.172,K,A*2D
$GPGGA,080121.00,4943.04618,N,01405.86807,E,1,05,1.20,445.6,M,44.6,M,,*55
$GPGSA,A,3,09,05,23,06,16,,,,,,,,2.56,1.20,2.26*0A
$GPGSV,3,1,10,02,34,265,,05,31,304,29,06,24,215,31,07,74,134,20*71
$GPGSV,3,2,10,09,60,075,38,16,17,039,33,23,23,084,46,26,01,019,18*7E
$GPGSV,3,3,10,29,03,327,27,30,42,200,27*71
$GPGLL,4943.04618,N,01405.86807,E,080121.00,A,A*63
$GPRMC,080122.00,A,4943.04609,N,01405.86822,E,0.140,,180317,,,A*77
$GPVTG,,T,,M,0.140,N,0.260,K,A*22
$GPGGA,080122.00,4943.04609,N,01405.86822,E,1,05,1.20,445.6,M,44.6,M,,*51
$GPGSA,A,3,09,05,23,06,16,,,,,,,,2.56,1.20,2.26*0A
$GPGSV,3,1,10,02,34,265,,05,31,304,29,06,24,215,30,07,74,134,21*71
$GPGSV,3,2,10,09,60,075,35,16,17,039,34,23,23,084,46,26,01,019,19*75
$GPGSV,3,3,10,29,03,327,28,30,42,200,27*7E
$GPGLL,4943.04609,N,01405.86822,E,080122.00,A,A*67
$GPRMC,080123.00,A,4943.04601,N,01405.86835,E,0.015,,180317,,,A*79
$GPVTG,,T,,M,0.015,N,0.028,K,A*2D
$GPGGA,080123.00,4943.04601,N,01405.86835,E,1,05,1.20,445.4,M,44.6,M,,*5C
$GPGSA,A,3,09,05,23,06,16,,,,,,,,2.56,1.20,2.26*0A
$GPGSV,3,1,10,02,34,265,,05,31,304,29,06,24,215,30,07,74,134,21*71
$GPGSV,3,2,10,09,60,075,36,16,17,039,34,23,23,084,45,26,01,019,18*74
$GPGSV,3,3,10,29,02,327,26,30,42,200,27*71
$GPGLL,4943.04601,N,01405.86835,E,080123.00,A,A*68
$GPRMC,080124.00,A,4943.04598,N,01405.86837,E,0.045,,180317,,,A*7A
$GPVTG,,T,,M,0.045,N,0.083,K,A*29
$GPGGA,080124.00,4943.04598,N,01405.86837,E,1,05,1.20,445.4,M,44.6,M,,*5A
$GPGSA,A,3,09,05,23,06,16,,,,,,,,2.56,1.20,2.26*0A
$GPGSV,3,1,10,02,34,265,,05,31,304,28,06,24,215,30,07,74,134,21*70
$GPGSV,3,2,10,09,60,075,35,16,17,039,34,23,23,084,46,26,01,019,16*7A
$GPGSV,3,3,10,29,02,327,27,30,43,200,28*7E
$GPGLL,4943.04598,N,01405.86837,E,080124.00,A,A*6E
$GPRMC,080125.00,A,4943.04593,N,01405.86836,E,0.063,,180317,,,A*75
$GPVTG,,T,,M,0.063,N,0.116,K,A*20
$GPGGA,080125.00,4943.04593,N,01405.86836,E,1,06,1.11,445.4,M,44.6,M,,*50
$GPGSA,A,3,09,30,05,23,06,16,,,,,,,2.45,1.11,2.18*04
$GPGSV,3,1,10,02,34,265,,05,31,304,29,06,24,215,31,07,74,134,21*70
$GPGSV,3,2,10,09,60,075,37,16,17,039,35,23,23,084,46,26,01,019,13*7C
$GPGSV,3,3,10,29,02,327,26,30,43,200,28*7F
$GPGLL,4943.04593,N,01405.86836,E,080125.00,A,A*65
$GPRMC,080126.00,A,4943.04591,N,01405.86836,E,0.113,,180317,,,A*72
$GPVTG,,T,,M,0.113,N,0.209,K,A*2B
$GPGGA,080126.00,4943.04591,N,01405.86836,E,1,06,1.11,445.3,M,44.6,M,,*56
$GPGSA,A,3,09,30,05,23,06,16,,,,,,,2.45,1.11,2.18*04
$GPGSV,3,1,10,02,34,265,,05,31,304,29,06,24,215,32,07,74,134,19*78
$GPGSV,3,2,10,09,60,075,36,16,17,039,36,23,23,084,46,26,01,019,11*7C
$GPGSV,3,3,10,29,02,327,24,30,43,200,28*7D
$GPGLL,4943.04591,N,01405.86836,E,080126.00,A,A*64
$GPRMC,080127.00,A,4943.04593,N,01405.86839,E,0.060,,180317,,,A*7B
$GPVTG,,T,,M,0.060,N,0.110,K,A*25
$GPGGA,080127.00,4943.04593,N,01405.86839,E,1,06,1.11,445.2,M,44.6,M,,*5B
$GPGSA,A,3,09,30,05,23,06,16,,,,,,,2.44,1.11,2.18*05
$GPGSV,3,1,10,02,34,265,,05,31,304,29,06,24,215,31,07,74,134,17*75
$GPGSV,3,2,10,09,60,075,38,16,17,039,37,23,23,084,44,26,01,019,17*77
$GPGSV,3,3,10,29,02,327,25,30,43,200,27*73
$GPGLL,4943.04593,N,01405.86839,E,080127.00,A,A*68
$GPRMC,080128.00,A,4943.04597,N,01405.86842,E,0.091,,180317,,,A*72
$GPVTG,,T,,M,0.091,N,0.168,K,A*24
$GPGGA,080128.00,4943.04597,N,01405.86842,E,1,06,1.11,445.2,M,44.6,M,,*5C
$GPGSA,A,3,09,30,05,23,06,16,,,,,,,2.44,1.11,2.18*05
$GPGSV,3,1,10,02,34,265,,05,31,304,30,06,24,215,30,07,74,134,14*7F
$GPGSV,3,2,10,09,60,075,37,16,17,039,38,23,23,084,44,26,01,019,22*71
$GPGSV,3,3,10,29,02,327,24,30,43,200,27*72
$GPGLL,4943.04597,N,01405.86842,E,080128.00,A,A*6F
$GPRMC,080129.00,A,4943.04598,N,01405.86844,E,0.016,,180317,,,A*75
$GPVTG,,T,,M,0.016,N,0.030,K,A*27
$GPGGA,080129.00,4943.04598,N,01405.86844,E,1,06,1.11,445.1,M,44.6,M,,*57
$GPGSA,A,3,09,30,05,23,06,16,,,,,,,2.44,1.11,2.18*05
$GPGSV,3,1,10,02,34,265,24,05,31,304,30,06,24,215,31,07,74,134,13*7F
$GPGSV,3,2,10,09,60,075,38,16,17,039,37,23,23,084,45,26,01,019,24*76
$GPGSV,3,3,10,29,02,327,26,30,43,200,27*70
$GPGLL,4943.04598,N,01405.86844,E,080129.00,A,A*67
$GPRMC,080130.00,A,4943.04597,N,01405.86846,E,0.039,,180317,,,A*7D
$GPVTG,,T,,M,0.039,N,0.072,K,A*2C
$GPGGA,080130.00,4943.04597,N,01405.86846,E,1,06,1.11,445.0,M,44.6,M,,*53
$GPGSA,A,3,09,30,05,23,06,16,,,,,,,2.44,1.11,2.18*05
$GPGSV,3,1,10,02,34,265,25,05,31,304,29,06,24,215,30,07,74,134,26*71
$GPGSV,3,2,10,09,60,075,38,16,17,039,35,23,23,084,45,26,01,019,27*77
$GPGSV,3,3,10,29,02,327,27,30,43,200,27*71
$GPGLL,4943.04597,N,01405.86846,E,080130.00,A,A*62
$GPRMC,080131.00,A,4943.04597,N,01405.86847,E,0.040,,180317,,,A*73
$GPVTG,,T,,M,0.040,N,0.074,K,A*24
$GPGGA,080131.00,4943.04597,N,01405.86847,E,1,06,1.11,445.0,M,44.6,M,,*53
$GPGSA,A,3,09,30,05,23,06,16,,,,,,,2.44,1.11,2.18*05
$GPGSV,3,1,10,02,34,265,26,05,31,304,29,06,24,215,32,07,74,134,23*75
$GPGSV,3,2,10,09,60,075,38,16,17,039,36,23,23,084,45,26,01,019,27*74
$GPGSV,3,3,10,29,02,327,27,30,43,200,29*7F
$GPGLL,4943.04597,N,01405.86847,E,080131.00,A,A*62
$GPRMC,080132.00,A,4943.04597,N,01405.86852,E,0.038,,180317,,,A*7B
$GPVTG,,T,,M,0.038,N,0.070,K,A*2F
$GPGGA,080132.00,4943.04597,N,01405.86852,E,1,06,1.11,444.8,M,44.6,M,,*5D
$GPGSA,A,3,09,30,05,23,06,16,,,,,,,2.44,1.11,2.18*05
$GPGSV,3,1,10,02,34,265,26,05,31,304,29,06,24,215,32,07,74,134,20*76
$GPGSV,3,2,10,09,60,075,38,16,17,039,36,23,23,084,46,26,01,019,27*77
$GPGSV,3,3,10,29,02,327,27,30,43,200,29*7F
$GPGLL,4943.04597,N,01405.86852,E,080132.00,A,A*65
$GPRMC,080133.00,A,4943.04598,N,01405.86854,E,0.091,,180317,,,A*70
$GPVTG,,T,,M,0.091,N,0.169,K,A*25
$GPGGA,080133.00,4943.04598,N,01405.86854,E,1,06,1.11,444.5,M,44.6,M,,*58
$GPGSA,A,3,09,30,05,23,06,16,,,,,,,2.44,1.11,2.18*05
$GPGSV,3,1,10,02,34,265,25,05,31,304,29,06,24,215,32,07,74,134,21*74
$GPGSV,3,2,10,09,60,075,38,16,17,039,36,23,23,084,46,26,01,019,26*76
$GPGSV,3,3,10,29,02,327,27,30,43,200,28*7E
$GPGLL,4943.04598,N,01405.86854,E,080133.00,A,A*6D
$GPRMC,080134.00,A,4943.04597,N,01405.86864,E,0.072,,180317,,,A*76
$GPVTG,,T,,M,0.072,N,0.133,K,A*27
$GPGGA,080134.00,4943.04597,N,01405.86864,E,1,06,1.11,444.4,M,44.6,M,,*52
$GPGSA,A,3,09,30,05,23,06,16,,,,,,,2.44,1.11,2.18*05
$GPGSV,3,1,10,02,34,265,24,05,31,304,30,06,24,215,31,07,74,134,20*7F
$GPGSV,3,2,10,09,60,075,37,16,17,039,36,23,23,084,45,26,01,019,24*78
$GPGSV,3,3,10,29,02,327,28,30,43,200,29*70
$GPGLL,4943.04597,N,01405.86864,E,080134.00,A,A*66
$GPRMC,080135.00,A,4943.04606,N,01405.86872,E,0.064,,180317,,,A*7C
$GPVTG,,T,,M,0.064,N,0.118,K,A*29
$GPGGA,080135.00,4943.04606,N,01405.86872,E,1,06,1.11,444.2,M,44.6,M,,*59
$GPGSA,A,3,09,30,05,23,06,16,,,,,,,2.44,1.11,2.18*05
$GPGSV,3,1,10,02,34,265,25,05,31,304,31,06,24,215,31,07,74,134,19*75
$GPGSV,3,2,10,09,60,075,38,16,17,039,38,23,23,084,45,26,01,019,21*7C
$GPGSV,3,3,10,29,02,327,29,30,43,200,29*71
$GPGLL,4943.04606,N,01405.86872,E,080135.00,A,A*6B
$GPRMC,080136.00,A,4943.04609,N,01405.86876,E,0.149,,180317,,,A*7A
$GPVTG,,T,,M,0.149,N,0.275,K,A*2F
$GPGGA,080136.00,4943.04609,N,01405.86876,E,1,06,1.11,444.0,M,44.6,M,,*53
$GPGSA,A,3,09,30,05,23,06,16,,,,,,,2.44,1.11,2.18*05
$GPGSV,3,1,10,02,34,265,25,05,31,304,29,06,24,215,30,07,74,134,17*73
$GPGSV,3,2,10,09,60,075,37,16,17,039,37,23,23,084,43,26,01,019,18*70
$GPGSV,3,3,10,29,02,327,29,30,43,200,29*71
$GPGLL,4943.04609,N,01405.86876,E,080136.00,A,A*63
$GPRMC,080137.00,A,4943.04611,N,01405.86877,E,0.116,,180317,,,A*79
$GPVTG,,T,,M,0.116,N,0.215,K,A*23
$GPGGA,080137.00,4943.04611,N,01405.86877,E,1,06,1.11,443.8,M,44.6,M,,*55
$GPGSA,A,3,09,30,05,23,06,16,,,,,,,2.44,1.11,2.18*05
$GPGSV,3,1,10,02,34,265,26,05,31,304,29,06,24,215,31,07,74,134,17*71
$GPGSV,3,2,10,09,60,075,37,16,17,039,37,23,23,084,44,26,01,019,17*78
$GPGSV,3,3,10,29,02,327,29,30,43,200,29*71
$GPGLL,4943.04611,N,01405.86877,E,080137.00,A,A*6A
$GPRMC,080138.00,A,4943.04625,N,01405.86875,E,0.029,,180317,,,A*7E
$GPVTG,,T,,M,0.029,N,0.055,K,A*28
$GPGGA,080138.00,4943.04625,N,01405.86875,E,1,06,1.11,443.6,M,44.6,M,,*51
$GPGSA,A,3,09,30,05,23,06,16,,,,,,,2.44,1.11,2.18*05
$GPGSV,3,1,10,02,34,265,26,05,31,304,28,06,24,215,31,07,74,134,18*7F
$GPGSV,3,2,10,09,60,075,37,16,17,039,38,23,23,084,43,26,01,019,19*7E
$GPGSV,3,3,10,29,02,327,28,30,43,200,31*79
$GPGLL,4943.04625,N,01405.86875,E,080138.00,A,A*60
$GPRMC,080139.00,A,4943.04640,N,01405.86872,E,0.173,,180317,,,A*75
$GPVTG,,T,,M,0.173,N,0.321,K,A*26
$GPGGA,080139.00,4943.04640,N,01405.86872,E,1,06,1.11,443.5,M,44.6,M,,*57
$GPGSA,A,3,09,30,05,23,06,16,,,,,,,2.44,1.11,2.18*05
$GPGSV,3,1,10,02,34,265,26,05,31,304,29,06,24,215,32,07,74,134,20*76
$GPGSV,3,2,10,09,60,075,35,16,17,039,38,23,23,084,39,26,01,019,21*7A
$GPGSV,3,3,10,29,02,327,28,30,43,200,31*79
$GPGLL,4943.04640,N,01405.86872,E,080139.00,A,A*65
$GPRMC,080140.00,A,4943.04650,N,01405.86871,E,0.099,,180317,,,A*7C
$GPVTG,,T,,M,0.099,N,0.183,K,A*29
$GPGGA,080140.00,4943.04650,N,01405.86871,E,1,06,1.11,443.4,M,44.6,M,,*5A
$GPGSA,A,3,09,30,05,23,06,16,,,,,,,2.44,1.11,2.18*05
$GPGSV,3,1,10,02,34,265,26,05,31,304,29,06,24,215,32,07,74,134,20*76
$GPGSV,3,2,10,09,60,075,35,16,17,039,38,23,23,084,39,26,01,019,24*7F
$GPGSV,3,3,10,29,02,327,27,30,43,200,30*77
$GPGLL,4943.04650,N,01405.86871,E,080140.00,A,A*69
$GPRMC,080141.00,A,4943.04663,N,01405.86871,E,0.084,,180317,,,A*71
$GPVTG,,T,,M,0.084,N,0.156,K,A*2D
$GPGGA,080141.00,4943.04663,N,01405.86871,E,1,06,1.11,443.2,M,44.6,M,,*5D
$GPGSA,A,3,09,30,05,23,06,16,,,,,,,2.44,1.11,2.18*05
$GPGSV,3,1,10,02,34,265,25,05,31,304,29,06,24,215,32,07,74,134,20*75
$GPGSV,3,2,10,09,60,075,36,16,17,039,39,23,23,084,37,26,01,019,24*73
$GPGSV,3,3,10,29,02,327,28,30,43,200,30*78
$GPGLL,4943.04663,N,01405.86871,E,080141.00,A,A*68
$GPRMC,080142.00,A,4943.04667,N,01405.86884,E,0.086,,180317,,,A*7E
$GPVTG,,T,,M,0.086,N,0.159,K,A*20
$GPGGA,080142.00,4943.04667,N,01405.86884,E,1,06,1.11,443.1,M,44.6,M,,*53
$GPGSA,A,3,09,30,05,23,06,16,,,,,,,2.44,1.11,2.17*0A
$GPGSV,3,1,10,02,34,265,25,05,31,304,30,06,24,215,31,07,74,134,18*75
$GPGSV,3,2,10,09,60,075,36,16,17,039,37,23,23,084,42,26,01,019,23*78
$GPGSV,3,3,10,29,02,327,28,30,43,200,30*78
$GPGLL,4943.04667,N,01405.86884,E,080142.00,A,A*65
$GPRMC,080143.00,A,4943.04671,N,01405.86899,E,0.062,,180317,,,A*7E
$GPVTG,,T,,M,0.062,N,0.115,K,A*22
$GPGGA,080143.00,4943.04671,N,01405.86899,E,1,06,1.11,443.1,M,44.6,M,,*59
$GPGSA,A,3,09,30,05,23,06,16,,,,,,,2.44,1.11,2.17*0A
$GPGSV,3,1,10,02,34,265,27,05,31,304,30,06,24,215,31,07,74,134,*7E
$GPGSV,3,2,10,09,60,075,36,16,17,039,38,23,23,084,43,26,01,019,23*76
$GPGSV,3,3,10,29,02,327,27,30,43,200,30*77
$GPGLL,4943.04671,N,01405.86899,E,080143.00,A,A*6F
$GPRMC,080144.00,A,4943.04669,N,01405.86917,E,0.046,,180317,,,A*71
$GPVTG,,T,,M,0.046,N,0.084,K,A*2D
$GPGGA,080144.00,4943.04669,N,01405.86917,E,1,06,1.11,443.0,M,44.6,M,,*51
$GPGSA,A,3,09,30,05,23,06,16,,,,,,,2.44,1.11,2.17*0A
$GPGSV,3,1,10,02,34,265,27,05,31,304,30,06,24,215,31,07,74,134,24*78
$GPGSV,3,2,10,09,60,075,36,16,17,039,34,23,23,084,42,26,01,019,24*7C
$GPGSV,3,3,10,29,02,327,28,30,43,200,31*79
$GPGLL,4943.04669,N,01405.86917,E,080144.00,A,A*66
$GPRMC,080145.00,A,4943.04666,N,01405.86934,E,0.086,,180317,,,A*72
$GPVTG,,T,,M,0.086,N,0.160,K,A*2A
$GPGGA,080145.00,4943.04666,N,01405.86934,E,1,06,1.11,443.1,M,44.6,M,,*5F
$GPGSA,A,3,09,30,05,23,06,16,,,,,,,2.44,1.11,2.17*0A
$GPGSV,3,1,10,02,34,265,27,05,31,304,31,06,24,215,32,07,74,134,*7C
$GPGSV,3,2,10,09,60,075,36,16,17,039,34,23,23,084,42,26,01,019,24*7C
$GPGSV,3,3,10,29,02,327,28,30,43,200,31*79
$GPGLL,4943.04666,N,01405.86934,E,080145.00,A,A*69
$GPRMC,080146.00,A,4943.04667,N,01405.86942,E,0.196,,180317,,,A*71
$GPVTG,,T,,M,0.196,N,0.362,K,A*2A
$GPGGA,080146.00,4943.04667,N,01405.86942,E,1,06,1.11,443.0,M,44.6,M,,*5D
$GPGSA,A,3,09,30,05,23,06,16,,,,,,,2.44,1.11,2.17*0A
$GPGSV,3,1,10,02,34,265,28,05,31,304,30,06,24,215,33,07,74,134,*73
$GPGSV,3,2,10,09,60,075,32,16,17,039,36,23,23,084,37,26,01,019,26*7A
$GPGSV,3,3,10,29,02,327,28,30,43,200,30*78
$GPGLL,4943.04667,N,01405.86942,E,080146.00,A,A*6A
$GPRMC,080147.00,A,4943.04669,N,01405.86950,E,0.030,,180317,,,A*70
$GPVTG,,T,,M,0.030,N,0.056,K,A*23
$GPGGA,080147.00,4943.04669,N,01405.86950,E,1,06,1.11,442.9,M,44.6,M,,*59
$GPGSA,A,3,09,30,05,23,06,16,,,,,,,2.44,1.11,2.17*0A
$GPGSV,3,1,10,02,34,265,29,05,31,304,30,06,24,215,34,07,74,134,20*77
$GPGSV,3,2,10,09,60,075,38,16,17,039,39,23,23,084,32,26,01,019,27*7B
$GPGSV,3,3,10,29,02,327,29,30,43,200,30*79
$GPGLL,4943.04669,N,01405.86950,E,080147.00,A,A*66
$GPRMC,080148.00,A,4943.04667,N,01405.86956,E,0.039,,180317,,,A*7E
$GPVTG,,T,,M,0.039,N,0.072,K,A*2C
$GPGGA,080148.00,4943.04667,N,01405.86956,E,1,06,1.11,442.9,M,44.6,M,,*5E
$GPGSA,A,3,09,30,05,23,06,16,,,,,,,2.44,1.11,2.17*0A
$GPGSV,3,1,10,02,34,265,28,05,31,304,30,06,24,215,34,07,74,134,21*77
$GPGSV,3,2,10,09,60,075,36,16,17,039,33,23,23,084,38,26,01,019,28*7A
$GPGSV,3,3,10,29,02,327,28,30,43,200,30*78
$GPGLL,4943.04667,N,01405.86956,E,080148.00,A,A*61
$GPRMC,080149.00,A,4943.04659,N,01405.86973,E,0.260,,180317,,,A*7B
$GPVTG,,T,,M,0.260,N,0.481,K,A*2A
$GPGGA,080149.00,4943.04659,N,01405.86973,E,1,06,1.11,442.7,M,44.6,M,,*5B
$GPGSA,A,3,09,30,05,23,06,16,,,,,,,2.44,1.11,2.17*0A
$GPGSV,3,1,10,02,34,265,27,05,31,304,30,06,24,215,32,07,74,134,22*7D
$GPGSV,3,2,10,09,60,075,34,16,17,039,30,23,23,084,39,26,01,019,27*75
$GPGSV,3,3,10,29,02,327,27,30,43,200,28*7E
$GPGLL,4943.04659,N,01405.86973,E,080149.00,A,A*6A
$GPRMC,080150.00,A,4943.04655,N,01405.86990,E,0.281,,180317,,,A*7D
$GPVTG,,T,,M,0.281,N,0.521,K,A*2E
$GPGGA,080150.00,4943.04655,N,01405.86990,E,1,06,1.11,442.3,M,44.6,M,,*56
$GPGSA,A,3,09,30,05,23,06,16,,,,,,,2.44,1.11,2.17*0A
$GPGSV,3,1,10,02,34,265,27,05,31,304,30,06,24,215,33,07,74,134,22*7C
$GPGSV,3,2,10,09,60,075,36,16,17,039,36,23,23,084,42,26,01,019,26*7C
$GPGSV,3,3,10,29,02,327,28,30,43,200,28*71
$GPGLL,4943.04655,N,01405.86990,E,080150.00,A,A*63
$GPRMC,080151.00,A,4943.04654,N,01405.87010,E,0.057,,180317,,,A*74
$GPVTG,,T,,M,0.057,N,0.105,K,A*25
$GPGGA,080151.00,4943.04654,N,01405.87010,E,1,06,1.11,441.8,M,44.6,M,,*5E
$GPGSA,A,3,09,30,05,23,06,16,,,,,,,2.44,1.11,2.17*0A
$GPGSV,3,1,10,02,34,265,26,05,31,304,30,06,24,215,33,07,74,134,22*7D
$GPGSV,3,2,10,09,60,075,35,16,17,039,38,23,23,084,41,26,01,019,25*71
$GPGSV,3,3,10,29,02,327,28,30,43,200,28*71
$GPGLL,4943.04654,N,01405.87010,E,080151.00,A,A*63
$GPRMC,080152.00,A,4943.04643,N,01405.87036,E,0.171,,180317,,,A*70
$GPVTG,,T,,M,0.171,N,0.317,K,A*21
$GPGGA,080152.00,4943.04643,N,01405.87036,E,1,06,1.11,441.5,M,44.6,M,,*52
$GPGSA,A,3,09,30,05,23,06,16,,,,,,,2.44,1.11,2.17*0A
$GPGSV,3,1,10,02,34,265,27,05,31,304,30,06,24,215,32,07,74,134,25*7A
$GPGSV,3,2,10,09,60,075,35,16,17,039,39,23,23,084,44,26,01,019,26*76
$GPGSV,3,3,10,29,02,327,28,30,43,200,28*71
$GPGLL,4943.04643,N,01405.87036,E,080152.00,A,A*62
$GPRMC,080153.00,A,4943.04636,N,01405.87051,E,0.117,,180317,,,A*72
$GPVTG,,T,,M,0.117,N,0.217,K,A*20
$GPGGA,080153.00,4943.04636,N,01405.87051,E,1,06,1.11,441.1,M,44.6,M,,*54
$GPGSA,A,3,09,30,05,23,06,16,,,,,,,2.44,1.11,2.17*0A
$GPGSV,3,1,10,02,34,265,28,05,31,304,30,06,24,215,33,07,74,134,25*74
$GPGSV,3,2,10,09,60,075,28,16,17,039,31,23,23,084,37,26,01,019,25*75
$GPGSV,3,3,10,29,02,327,27,30,43,200,28*7E
$GPGLL,4943.04636,N,01405.87051,E,080153.00,A,A*60
$GPRMC,080154.00,A,4943.04632,N,01405.87064,E,0.134,,180317,,,A*76
$GPVTG,,T,,M,0.134,N,0.248,K,A*2B
$GPGGA,080154.00,4943.04632,N,01405.87064,E,1,06,1.11,440.9,M,44.6,M,,*58
$GPGSA,A,3,09,30,05,23,06,16,,,,,,,2.44,1.11,2.17*0A
$GPGSV,3,1,10,02,34,265,27,05,31,304,30,06,24,215,33,07,74,134,25*7B
$GPGSV,3,2,10,09,60,075,38,16,17,039,37,23,23,084,43,26,01,019,25*71
$GPGSV,3,3,10,29,02,327,27,30,43,200,28*7E
$GPGLL,4943.04632,N,01405.87064,E,080154.00,A,A*65
$GPRMC,080155.00,A,4943.04623,N,01405.87076,E,0.048,,180317,,,A*7E
$GPVTG,,T,,M,0.048,N,0.089,K,A*2E
$GPGGA,080155.00,4943.04623,N,01405.87076,E,1,06,1.11,440.6,M,44.6,M,,*55
$GPGSA,A,3,09,30,05,23,06,16,,,,,,,2.44,1.11,2.17*0A
$GPGSV,3,1,10,02,34,265,27,05,31,304,29,06,24,215,32,07,74,134,25*72
$GPGSV,3,2,10,09,60,075,37,16,17,039,39,23,23,084,41,26,01,019,24*73
$GPGSV,3,3,10,29,02,327,27,30,43,200,28*7E
$GPGLL,4943.04623,N,01405.87076,E,080155.00,A,A*67
$GPRMC,080156.00,A,4943.04618,N,01405.87087,E,0.106,,180317,,,A*70
$GPVTG,,T,,M,0.106,N,0.196,K,A*2A
$GPGGA,080156.00,4943.04618,N,01405.87087,E,1,06,1.11,440.4,M,44.6,M,,*52
$GPGSA,A,3,09,30,05,23,06,16,,,,,,,2.44,1.11,2.17*0A
$GPGSV,3,1,10,02,34,265,27,05,31,304,29,06,24,215,33,07,74,134,25*73
$GPGSV,3,2,10,09,60,075,36,16,17,039,37,23,23,084,40,26,01,019,22*7B
$GPGSV,3,3,10,29,02,327,28,30,43,200,27*7E
$GPGLL,4943.04618,N,01405.87087,E,080156.00,A,A*62
$GPRMC,080157.00,A,4943.04614,N,01405.87098,E,0.110,,180317,,,A*74
$GPVTG,,T,,M,0.110,N,0.203,K,A*22
$GPGGA,080157.00,4943.04614,N,01405.87098,E,1,06,1.11,440.2,M,44.6,M,,*57
$GPGSA,A,3,09,30,05,23,06,16,,,,,,,2.44,1.11,2.17*0A
$GPGSV,3,1,10,02,34,265,28,05,31,304,29,06,24,215,32,07,74,134,25*7D
$GPGSV,3,2,10,09,60,075,35,16,17,039,36,23,23,084,40,26,01,019,22*79
$GPGSV,3,3,10,29,02,327,27,30,43,200,27*71
$GPGLL,4943.04614,N,01405.87098,E,080157.00,A,A*61
$GPRMC,080158.00,A,4943.04609,N,01405.87106,E,0.070,,180317,,,A*76
$GPVTG,,T,,M,0.070,N,0.129,K,A*2E
$GPGGA,080158.00,4943.04609,N,01405.87106,E,1,06,1.11,440.0,M,44.6,M,,*50
$GPGSA,A,3,09,30,05,23,06,16,,,,,,,2.43,1.11,2.17*0D
$GPGSV,3,1,10,02,34,265,27,05,31,304,30,06,24,215,33,07,74,134,25*7B
$GPGSV,3,2,10,09,60,075,36,16,17,039,36,23,23,084,41,26,01,019,23*7A
$GPGSV,3,3,10,29,02,327,27,30,43,200,28*7E
$GPGLL,4943.04609,N,01405.87106,E,080158.00,A,A*64
$GPRMC,080159.00,A,4943.04604,N,01405.87116,E,0.135,,180317,,,A*7B
$GPVTG,,T,,M,0.135,N,0.251,K,A*22
$GPGGA,080159.00,4943.04604,N,01405.87116,E,1,06,1.11,440.0,M,44.6,M,,*5D
$GPGSA,A,3,09,30,05,23,06,16,,,,,,,2.43,1.11,2.17*0D
$GPGSV,3,1,10,02,34,265,26,05,31,304,30,06,24,215,34,07,74,134,26*7E
$GPGSV,3,2,10,09,60,075,35,16,17,039,34,23,23,084,39,26,01,019,25*72
$GPGSV,3,3,10,29,02,327,27,30,43,200,27*71
$GPGLL,4943.04604,N,01405.87116,E,080159.00,A,A*69
$GPRMC,080200.00,A,4943.04600,N,01405.87127,E,0.105,,180317,,,A*71
$GPVTG,,T,,M,0.105,N,0.194,K,A*2B
$GPGGA,080200.00,4943.04600,N,01405.87127,E,1,06,1.11,439.9,M,44.6,M,,*53
$GPGSA,A,3,09,30,05,23,06,16,,,,,,,2.43,1.11,2.17*0D
$GPGSV,3,1,10,02,34,265,27,05,31,304,31,06,24,215,34,07,74,134,26*7E
$GPGSV,3,2,10,09,60,075,35,16,17,039,37,23,23,084,39,26,01,019,25*71
$GPGSV,3,3,10,29,02,327,28,30,43,200,26*7F
$GPGLL,4943.04600,N,01405.87127,E,080200.00,A,A*60
$GPRMC,080201.00,A,4943.04595,N,01405.87130,E,0.043,,180317,,,A*7A
$GPVTG,,T,,M,0.043,N,0.080,K,A*2C
$GPGGA,080201.00,4943.04595,N,01405.87130,E,1,07,1.03,439.7,M,44.6,M,,*57
$GPGSA,A,3,09,30,02,05,23,06,16,,,,,,2.40,1.03,2.17*0F
$GPGSV,3,1,10,02,34,264,28,05,31,304,30,06,24,215,34,07,74,134,27*70
$GPGSV,3,2,10,09,60,075,35,16,17,039,32,23,23,084,40,26,01,019,26*79
$GPGSV,3,3,10,29,02,327,20,30,43,200,27*76
$GPGLL,4943.04595,N,01405.87130,E,080201.00,A,A*68
$GPRMC,080202.00,A,4943.04593,N,01405.87129,E,0.032,,180317,,,A*71
$GPVTG,,T,,M,0.032,N,0.060,K,A*24
$GPGGA,080202.00,4943.04593,N,01405.87129,E,1,07,1.03,439.5,M,44.6,M,,*58
$GPGSA,A,3,09,30,02,05,23,06,16,,,,,,2.40,1.03,2.17*0F
$GPGSV,3,1,10,02,34,264,27,05,31,304,30,06,24,215,34,07,74,134,27*7F
$GPGSV,3,2,10,09,60,075,36,16,17,039,36,23,23,084,40,26,01,019,26*7E
$GPGSV,3,3,10,29,02,327,22,30,43,200,28*7B
$GPGLL,4943.04593,N,01405.87129,E,080202.00,A,A*65
$GPRMC,080203.00,A,4943.04594,N,01405.87123,E,0.065,,180317,,,A*7F
$GPVTG,,T,,M,0.065,N,0.120,K,A*23
$GPGGA,080203.00,4943.04594,N,01405.87123,E,1,07,1.03,439.4,M,44.6,M,,*55
$GPGSA,A,3,09,30,02,05,23,06,16,,,,,,2.40,1.03,2.17*0F
$GPGSV,3,1,10,02,34,264,28,05,31,304,30,06,24,215,33,07,74,134,27*77
$GPGSV,3,2,10,09,60,075,35,16,17,039,35,23,23,084,43,26,01,019,22*79
$GPGSV,3,3,10,29,02,327,24,30,43,200,26*73
$GPGLL,4943.04594,N,01405.87123,E,080203.00,A,A*69
$GPRMC,080204.00,A,4943.04596,N,01405.87117,E,0.057,,180317,,,A*7C
$GPVTG,,T,,M,0.057,N,0.105,K,A*25
$GPGGA,080204.00,4943.04596,N,01405.87117,E,1,07,1.03,439.3,M,44.6,M,,*50
$GPGSA,A,3,09,30,02,05,23,06,16,,,,,,2.40,1.03,2.17*0F
$GPGSV,3,1,10,02,34,264,28,05,31,304,29,06,24,215,33,07,74,134,26*7E
$GPGSV,3,2,10,09,60,075,35,16,17,039,32,23,23,084,42,26,01,019,21*7C
$GPGSV,3,3,10,29,02,327,25,30,43,200,25*71
$GPGLL,4943.04596,N,01405.87117,E,080204.00,A,A*6B
$GPRMC,080205.00,A,4943.04598,N,01405.87111,E,0.093,,180317,,,A*7D
$GPVTG,,T,,M,0.093,N,0.172,K,A*2D
$GPGGA,080205.00,4943.04598,N,01405.87111,E,1,07,1.03,439.1,M,44.6,M,,*5B
$GPGSA,A,3,09,30,02,05,23,06,16,,,,,,2.40,1.03,2.17*0F
$GPGSV,3,1,10,02,34,264,28,05,31,304,29,06,24,215,33,07,74,134,25*7D
$GPGSV,3,2,10,09,60,075,35,16,17,039,31,23,23,084,40,26,01,019,19*76
$GPGSV,3,3,10,29,02,327,26,30,43,200,23*74
$GPGLL,4943.04598,N,01405.87111,E,080205.00,A,A*62
$GPRMC,080206.00,A,4943.04600,N,01405.87108,E,0.166,,180317,,,A*7F
$GPVTG,,T,,M,0.166,N,0.308,K,A*29
$GPGGA,080206.00,4943.04600,N,01405.87108,E,1,07,1.03,439.1,M,44.6,M,,*52
$GPGSA,A,3,09,30,02,05,23,06,16,,,,,,2.40,1.03,2.16*0E
$GPGSV,3,1,10,02,34,264,30,05,31,304,29,06,24,215,33,07,74,134,25*74
$GPGSV,3,2,10,09,60,075,35,16,17,039,35,23,23,084,34,26,01,019,18*70
$GPGSV,3,3,10,29,02,327,27,30,43,200,24*72
$GPGLL,4943.04600,N,01405.87108,E,080206.00,A,A*6B
$GPRMC,080207.00,A,4943.04599,N,01405.87102,E,0.121,,180317,,,A*74
$GPVTG,,T,,M,0.121,N,0.224,K,A*25
$GPGGA,080207.00,4943.04599,N,01405.87102,E,1,07,1.03,439.0,M,44.6,M,,*5B
$GPGSA,A,3,09,30,02,05,23,06,16,,,,,,2.40,1.03,2.16*0E
$GPGSV,3,1,10,02,34,264,30,05,31,304,30,06,24,215,32,07,74,134,25*7D
$GPGSV,3,2,10,09,60,075,36,16,17,039,31,23,23,084,39,26,01,019,19*7B
$GPGSV,3,3,10,29,02,327,27,30,43,200,23*75
$GPGLL,4943.04599,N,01405.87102,E,080207.00,A,A*63
$GPRMC,080208.00,A,4943.04599,N,01405.87094,E,0.112,,180317,,,A*75
$GPVTG,,T,,M,0.112,N,0.208,K,A*2B
$GPGGA,080208.00,4943.04599,N,01405.87094,E,1,06,1.37,439.0,M,44.6,M,,*5C
$GPGSA,A,3,09,30,02,23,06,16,,,,,,,2.57,1.37,2.18*04
$GPGSV,3,1,10,02,34,264,31,05,31,304,,06,24,215,32,07,74,134,25*7F
$GPGSV,3,2,10,09,60,075,35,16,17,039,31,23,23,084,30,26,01,019,20*7B
$GPGSV,3,3,10,29,02,327,28,30,43,200,23*7A
$GPGLL,4943.04599,N,01405.87094,E,080208.00,A,A*62
$GPRMC,080209.00,A,4943.04605,N,01405.87082,E,0.131,,180317,,,A*74
$GPVTG,,T,,M,0.131,N,0.242,K,A*24
$GPGGA,080209.00,4943.04605,N,01405.87082,E,1,07,1.03,438.9,M,44.6,M,,*52
$GPGSA,A,3,09,30,02,05,23,06,16,,,,,,2.40,1.03,2.16*0E
$GPGSV,3,1,10,02,34,264,31,05,31,304,28,06,24,215,32,07,74,134,26*76
$GPGSV,3,2,10,09,60,075,35,16,17,039,31,23,23,084,28,26,01,019,20*72
$GPGSV,3,3,10,29,02,327,28,30,43,200,24*7D
$GPGLL,4943.04605,N,01405.87082,E,080209.00,A,A*62
$GPRMC,080210.00,A,4943.04615,N,01405.87071,E,0.179,,180317,,,A*7D
$GPVTG,,T,,M,0.179,N,0.332,K,A*2E
$GPGGA,080210.00,4943.04615,N,01405.87071,E,1,07,1.03,438.8,M,44.6,M,,*56
$GPGSA,A,3,09,30,02,05,23,06,16,,,,,,2.40,1.03,2.16*0E
$GPGSV,3,1,10,02,34,264,31,05,32,304,28,06,24,215,32,07,74,134,24*77
$GPGSV,3,2,10,09,60,075,35,16,17,039,36,23,23,084,27,26,01,019,22*78
$GPGSV,3,3,10,29,02,327,29,30,43,200,25*7D
$GPGLL,4943.04615,N,01405.87071,E,080210.00,A,A*67
$GPRMC,080211.00,A,4943.04620,N,01405.87063,E,0.086,,180317,,,A*78
$GPVTG,,T,,M,0.086,N,0.160,K,A*2A
$GPGGA,080211.00,4943.04620,N,01405.87063,E,1,07,1.03,438.8,M,44.6,M,,*52
$GPGSA,A,3,09,30,02,05,23,06,16,,,,,,2.40,1.03,2.16*0E
$GPGSV,3,1,10,02,34,264,31,05,32,304,28,06,24,215,32,07,74,134,26*75
$GPGSV,3,2,10,09,60,075,35,16,17,039,36,23,23,084,32,26,01,019,24*7A
$GPGSV,3,3,10,29,02,327,29,30,43,200,24*7C
$GPGLL,4943.04620,N,01405.87063,E,080211.00,A,A*63
$GPRMC,080212.00,A,4943.04623,N,01405.87067,E,0.068,,180317,,,A*7C
$GPVTG,,T,,M,0.068,N,0.126,K,A*28
$GPGGA,080212.00,4943.04623,N,01405.87067,E,1,07,1.03,438.4,M,44.6,M,,*5A
$GPGSA,A,3,09,30,02,05,23,06,16,,,,,,2.40,1.03,2.16*0E
$GPGSV,3,1,10,02,34,264,30,05,32,304,29,06,24,215,32,07,74,132,26*73
$GPGSV,3,2,10,09,60,075,34,16,17,039,34,23,23,084,37,26,01,019,24*7C
$GPGSV,3,3,10,29,02,327,33,30,43,200,23*70
$GPGLL,4943.04623,N,01405.87067,E,080212.00,A,A*67
$GPRMC,080213.00,A,4943.04642,N,01405.87053,E,0.019,,180317,,,A*7B
$GPVTG,,T,,M,0.019,N,0.035,K,A*2D
$GPGGA,080213.00,4943.04642,N,01405.87053,E,1,07,1.03,438.3,M,44.6,M,,*5C
$GPGSA,A,3,09,30,02,05,23,06,16,,,,,,2.40,1.03,2.16*0E
$GPGSV,3,1,10,02,34,264,28,05,32,304,28,06,24,215,31,07,74,132,26*78
$GPGSV,3,2,10,09,60,075,33,16,17,039,40,23,23,084,32,26,01,019,24*7D
$GPGSV,3,3,10,29,02,327,30,30,43,200,21*71
$GPGLL,4943.04642,N,01405.87053,E,080213.00,A,A*66
$GPRMC,080214.00,A,4943.04649,N,01405.87047,E,0.368,,180317,,,A*77
$GPVTG,,T,,M,0.368,N,0.682,K,A*22
$GPGGA,080214.00,4943.04649,N,01405.87047,E,1,07,1.03,438.4,M,44.6,M,,*52
$GPGSA,A,3,09,30,02,05,23,06,16,,,,,,2.40,1.03,2.16*0E
$GPGSV,3,1,10,02,34,264,29,05,32,304,27,06,24,215,31,07,74,132,25*75
$GPGSV,3,2,10,09,60,076,32,16,17,039,40,23,23,084,26,26,01,019,22*7C
$GPGSV,3,3,10,29,02,327,30,30,43,200,21*71
$GPGLL,4943.04649,N,01405.87047,E,080214.00,A,A*6F
$GPRMC,080215.00,A,4943.04654,N,01405.87039,E,0.074,,180317,,,A*7D
$GPVTG,,T,,M,0.074,N,0.137,K,A*25
$GPGGA,080215.00,4943.04654,N,01405.87039,E,1,07,1.03,438.5,M,44.6,M,,*57
$GPGSA,A,3,09,30,02,05,23,06,16,,,,,,2.40,1.03,2.16*0E
$GPGSV,3,1,10,02,34,264,28,05,32,304,27,06,24,215,30,07,74,132,25*75
$GPGSV,3,2,10,09,60,076,32,16,17,039,41,23,23,084,26,26,01,019,22*7D
$GPGSV,3,3,10,29,02,327,32,30,43,200,19*78
$GPGLL,4943.04654,N,01405.87039,E,080215.00,A,A*6B
$GPRMC,080216.00,A,4943.04659,N,01405.87032,E,0.233,,180317,,,A*79
$GPVTG,,T,,M,0.233,N,0.432,K,A*24
$GPGGA,080216.00,4943.04659,N,01405.87032,E,1,07,1.03,438.7,M,44.6,M,,*50
$GPGSA,A,3,09,30,02,05,23,06,16,,,,,,2.39,1.03,2.16*00
$GPGSV,3,1,10,02,34,264,30,05,32,304,27,06,24,215,31,07,74,132,25*7D
$GPGSV,3,2,10,09,60,076,33,16,17,039,28,23,23,084,26,26,01,019,22*73
$GPGSV,3,3,10,29,02,327,32,30,43,200,20*72
$GPGLL,4943.04659,N,01405.87032,E,080216.00,A,A*6E
$GPRMC,080217.00,A,4943.04664,N,01405.87022,E,0.087,,180317,,,A*7A
$GPVTG,,T,,M,0.087,N,0.160,K,A*2B
$GPGGA,080217.00,4943.04664,N,01405.87022,E,1,07,1.03,438.8,M,44.6,M,,*51
$GPGSA,A,3,09,30,02,05,23,06,16,,,,,,2.39,1.03,2.16*00
$GPGSV,3,1,10,02,34,264,31,05,32,304,28,06,24,215,31,07,74,132,25*73
$GPGSV,3,2,10,09,60,076,33,16,17,039,36,23,23,084,31,26,01,019,20*78
$GPGSV,3,3,10,29,02,327,32,30,43,200,19*78
$GPGLL,4943.04664,N,01405.87022,E,080217.00,A,A*60
$GPRMC,080218.00,A,4943.04671,N,01405.87012,E,0.080,,180317,,,A*75
$GPVTG,,T,,M,0.080,N,0.148,K,A*26
$GPGGA,080218.00,4943.04671,N,01405.87012,E,1,07,1.03,438.9,M,44.6,M,,*58
$GPGSA,A,3,09,30,02,05,23,06,16,,,,,,2.39,1.03,2.16*00
$GPGSV,3,1,10,02,34,264,32,05,32,304,29,06,24,215,32,07,74,132,23*74
$GPGSV,3,2,10,09,60,076,31,16,17,039,36,23,23,084,31,26,01,019,19*70
$GPGSV,3,3,10,29,02,327,30,30,43,200,19*7A
$GPGLL,4943.04671,N,01405.87012,E,080218.00,A,A*68
$GPRMC,080219.00,A,4943.04665,N,01405.87019,E,0.192,,180317,,,A*78
$GPVTG,,T,,M,0.192,N,0.355,K,A*2A
$GPGGA,080219.00,4943.04665,N,01405.87019,E,1,07,1.03,438.9,M,44.6,M,,*57
$GPGSA,A,3,09,30,02,05,23,06,16,,,,,,2.39,1.03,2.16*00
$GPGSV,3,1,10,02,34,264,30,05,32,304,29,06,24,215,31,07,74,132,24*72
$GPGSV,3,2,10,09,60,076,30,16,17,039,33,23,23,084,34,26,01,019,19*71
$GPGSV,3,3,10,29,02,326,28,30,43,200,20*78
$GPGLL,4943.04665,N,01405.87019,E,080219.00,A,A*67
$GPRMC,080220.00,A,4943.04658,N,01405.87028,E,0.178,,180317,,,A*7A
$GPVTG,,T,,M,0.178,N,0.329,K,A*25
$GPGGA,080220.00,4943.04658,N,01405.87028,E,1,07,1.03,439.1,M,44.6,M,,*58
$GPGSA,A,3,09,30,02,05,23,06,16,,,,,,2.39,1.03,2.16*00
$GPGSV,3,1,10,02,34,264,30,05,32,304,28,06,24,215,31,07,74,132,22*75
$GPGSV,3,2,10,09,60,076,35,16,17,039,32,23,23,084,36,26,01,019,16*78
$GPGSV,3,3,10,29,02,326,27,30,43,200,20*77
$GPGLL,4943.04658,N,01405.87028,E,080220.00,A,A*61
$GPRMC,080221.00,A,4943.04655,N,01405.87035,E,0.035,,180317,,,A*72
$GPVTG,,T,,M,0.035,N,0.066,K,A*25
$GPGGA,080221.00,4943.04655,N,01405.87035,E,1,07,1.03,439.1,M,44.6,M,,*58
$GPGSA,A,3,09,30,02,05,23,06,16,,,,,,2.39,1.03,2.16*00
$GPGSV,3,1,10,02,34,264,30,05,32,304,28,06,24,215,31,07,74,132,22*75
$GPGSV,3,2,10,09,60,076,33,16,17,038,28,23,23,084,36,26,01,019,15*77
$GPGSV,3,3,10,29,02,326,27,30,43,200,19*7D
$GPGLL,4943.04655,N,01405.87035,E,080221.00,A,A*61
$GPRMC,080222.00,A,4943.04648,N,01405.87045,E,0.067,,180317,,,A*7D
$GPVTG,,T,,M,0.067,N,0.124,K,A*25
$GPGGA,080222.00,4943.04648,N,01405.87045,E,1,07,1.03,438.9,M,44.6,M,,*59
$GPGSA,A,3,09,30,02,05,23,06,16,,,,,,2.39,1.03,2.16*00
$GPGSV,3,1,10,02,34,264,30,05,32,304,29,06,24,215,31,07,74,132,22*74
$GPGSV,3,2,10,09,60,076,34,16,17,038,33,23,23,084,36,26,01,019,13*7C
$GPGSV,3,3,10,29,02,326,27,30,43,200,18*7C
$GPGLL,4943.04648,N,01405.87045,E,080222.00,A,A*69
$GPRMC,080223.00,A,4943.04639,N,01405.87065,E,0.111,,180317,,,A*78
$GPVTG,,T,,M,0.111,N,0.205,K,A*25
$GPGGA,080223.00,4943.04639,N,01405.87065,E,1,07,1.03,438.7,M,44.6,M,,*52
$GPGSA,A,3,09,30,02,05,23,06,16,,,,,,2.39,1.03,2.16*00
$GPGSV,3,1,10,02,34,264,31,05,32,304,29,06,24,215,32,07,74,132,22*76
$GPGSV,3,2,10,09,60,076,34,16,17,038,28,23,23,084,37,26,01,019,14*70
$GPGSV,3,3,10,29,02,326,27,30,43,200,16*72
$GPGLL,4943.04639,N,01405.87065,E,080223.00,A,A*6C
$GPRMC,080224.00,A,4943.04639,N,01405.87068,E,0.095,,180317,,,A*7F
$GPVTG,,T,,M,0.095,N,0.177,K,A*2E
$GPGGA,080224.00,4943.04639,N,01405.87068,E,1,07,1.03,438.7,M,44.6,M,,*58
$GPGSA,A,3,09,30,02,05,23,06,16,,,,,,2.39,1.03,2.16*00
$GPGSV,3,1,10,02,34,264,30,05,32,304,30,06,24,215,32,07,74,132,22*7F
$GPGSV,3,2,10,09,60,076,34,16,17,038,27,23,23,084,37,26,01,019,17*7C
$GPGSV,3,3,10,29,02,326,27,30,43,200,13*77
$GPGLL,4943.04639,N,01405.87068,E,080224.00,A,A*66
$GPRMC,080225.00,A,4943.04642,N,01405.87070,E,0.041,,180317,,,A*72
$GPVTG,,T,,M,0.041,N,0.076,K,A*27
$GPGGA,080225.00,4943.04642,N,01405.87070,E,1,07,1.03,438.5,M,44.6,M,,*5E
$GPGSA,A,3,09,30,02,05,23,06,16,,,,,,2.39,1.03,2.16*00
$GPGSV,3,1,10,02,34,264,30,05,32,304,30,06,24,215,31,07,74,132,22*7C
$GPGSV,3,2,10,09,60,076,34,16,17,038,32,23,23,084,37,26,01,019,17*78
$GPGSV,3,3,10,29,02,326,27,30,43,200,15*71
$GPGLL,4943.04642,N,01405.87070,E,080225.00,A,A*62
$GPRMC,080226.00,A,4943.04648,N,01405.87072,E,0.072,,180317,,,A*79
$GPVTG,,T,,M,0.072,N,0.133,K,A*27
$GPGGA,080226.00,4943.04648,N,01405.87072,E,1,07,1.03,438.3,M,44.6,M,,*53
$GPGSA,A,3,09,30,02,05,23,06,16,,,,,,2.39,1.03,2.16*00
$GPGSV,3,1,10,02,34,264,31,05,32,304,30,06,24,215,31,07,74,132,23*7C
$GPGSV,3,2,10,09,60,076,35,16,17,038,35,23,23,084,38,26,01,019,17*71
$GPGSV,3,3,10,29,02,326,26,30,43,200,18*7D
$GPGLL,4943.04648,N,01405.87072,E,080226.00,A,A*69
$GPRMC,080227.00,A,4943.04655,N,01405.87070,E,0.061,,180317,,,A*74
$GPVTG,,T,,M,0.061,N,0.112,K,A*26
$GPGGA,080227.00,4943.04655,N,01405.87070,E,1,07,1.03,438.1,M,44.6,M,,*5E
$GPGSA,A,3,09,30,02,05,23,06,16,,,,,,2.39,1.03,2.16*00
$GPGSV,3,1,10,02,34,264,31,05,32,304,31,06,24,215,32,07,74,132,23*7E
$GPGSV,3,2,10,09,60,076,26,16,17,038,30,23,23,084,35,26,01,019,16*7A
$GPGSV,3,3,10,29,02,326,24,30,43,200,20*74
$GPGLL,4943.04655,N,01405.87070,E,080227.00,A,A*66
$GPRMC,080228.00,A,4943.04664,N,01405.87064,E,0.034,,180317,,,A*7C
$GPVTG,,T,,M,0.034,N,0.063,K,A*21
$GPGGA,080228.00,4943.04664,N,01405.87064,E,1,07,1.15,438.0,M,44.6,M,,*50
$GPGSA,A,3,09,30,02,05,23,06,16,,,,,,2.74,1.15,2.49*04
$GPGSV,3,1,10,02,34,264,31,05,32,304,29,06,24,215,31,07,74,132,24*73
$GPGSV,3,2,10,09,60,076,26,16,17,038,29,23,23,084,32,26,01,019,19*7A
$GPGSV,3,3,10,29,02,326,25,30,43,200,20*75
$GPGLL,4943.04664,N,01405.87064,E,080228.00,A,A*6E
$GPRMC,080229.00,A,4943.04677,N,01405.87057,E,0.283,,180317,,,A*71
$GPVTG,,T,,M,0.283,N,0.524,K,A*29
$GPGGA,080229.00,4943.04677,N,01405.87057,E,1,07,1.03,437.5,M,44.6,M,,*5E
$GPGSA,A,3,09,30,02,05,23,06,16,,,,,,2.39,1.03,2.16*00
$GPGSV,3,1,10,02,34,264,30,05,32,304,28,06,24,215,31,07,74,132,25*72
$GPGSV,3,2,10,09,60,076,24,16,17,038,30,23,23,084,31,26,01,019,21*78
$GPGSV,3,3,10,29,02,326,25,30,43,200,19*7F
$GPGLL,4943.04677,N,01405.87057,E,080229.00,A,A*6D
$GPRMC,080230.00,A,4943.04689,N,01405.87051,E,0.088,,180317,,,A*77
$GPVTG,,T,,M,0.088,N,0.163,K,A*27
$GPGGA,080230.00,4943.04689,N,01405.87051,E,1,06,1.19,437.1,M,44.6,M,,*5F
$GPGSA,A,3,09,30,02,05,06,16,,,,,,,2.62,1.19,2.34*04
$GPGSV,3,1,10,02,34,264,30,05,32,304,29,06,24,215,31,07,74,132,27*71
$GPGSV,3,2,10,09,60,076,25,16,17,038,29,23,23,084,,26,01,019,22*70
$GPGSV,3,3,10,29,02,326,26,30,43,200,18*7D
$GPGLL,4943.04689,N,01405.87051,E,080230.00,A,A*62
$GPRMC,080231.00,A,4943.04698,N,01405.87048,E,0.110,,180317,,,A*7E
$GPVTG,,T,,M,0.110,N,0.204,K,A*25
$GPGGA,080231.00,4943.04698,N,01405.87048,E,1,07,1.03,436.8,M,44.6,M,,*54
$GPGSA,A,3,09,30,02,05,23,06,16,,,,,,2.39,1.03,2.16*00
$GPGSV,3,1,10,02,34,264,29,05,32,304,29,06,24,215,31,07,74,132,27*79
$GPGSV,3,2,10,09,60,076,27,16,17,038,30,23,23,084,28,26,01,018,22*71
$GPGSV,3,3,10,29,02,326,27,30,43,200,17*73
$GPGLL,4943.04698,N,01405.87048,E,080231.00,A,A*6B
$GPRMC,080232.00,A,4943.04702,N,01405.87053,E,0.050,,180317,,,A*70
$GPVTG,,T,,M,0.050,N,0.092,K,A*2D
$GPGGA,080232.00,4943.04702,N,01405.87053,E,1,07,1.03,436.5,M,44.6,M,,*52
$GPGSA,A,3,09,30,02,05,23,06,16,,,,,,2.39,1.03,2.16*00
$GPGSV,3,1,10,02,34,264,29,05,32,304,30,06,24,215,31,07,74,132,26*70
$GPGSV,3,2,10,09,60,076,28,16,17,038,28,23,23,084,36,26,01,018,20*7A
$GPGSV,3,3,10,29,02,326,27,30,43,200,18*7C
$GPGLL,4943.04702,N,01405.87053,E,080232.00,A,A*60
$GPRMC,080233.00,A,4943.04699,N,01405.87065,E,0.086,,180317,,,A*7C
$GPVTG,,T,,M,0.086,N,0.160,K,A*2A
$GPGGA,080233.00,4943.04699,N,01405.87065,E,1,07,1.03,435.9,M,44.6,M,,*5A
$GPGSA,A,3,09,30,02,05,23,06,16,,,,,,2.39,1.03,2.16*00
$GPGSV,3,1,10,02,34,264,29,05,32,304,29,06,24,215,30,07,74,132,28*77
$GPGSV,3,2,10,09,60,076,28,16,17,038,32,23,23,084,37,26,01,018,18*7B
$GPGSV,3,3,10,29,02,326,27,30,43,200,16*72
$GPGLL,4943.04699,N,01405.87065,E,080233.00,A,A*67
$GPRMC,080234.00,A,4943.04694,N,01405.87084,E,0.152,,180317,,,A*71
$GPVTG,,T,,M,0.152,N,0.281,K,A*2E
$GPGGA,080234.00,4943.04694,N,01405.87084,E,1,07,1.03,436.2,M,44.6,M,,*57
$GPGSA,A,3,09,30,02,05,23,06,16,,,,,,2.39,1.03,2.16*00
$GPGSV,3,1,10,02,34,264,29,05,32,304,29,06,24,215,31,07,74,132,28*76
$GPGSV,3,2,10,09,60,076,28,16,17,038,31,23,23,084,38,26,01,018,15*7A
$GPGSV,3,3,10,29,02,326,27,30,43,200,15*71
$GPGLL,4943.04694,N,01405.87084,E,080234.00,A,A*62
$GPRMC,080235.00,A,4943.04698,N,01405.87092,E,0.129,,180317,,,A*77
$GPVTG,,T,,M,0.129,N,0.238,K,A*20
$GPGGA,080235.00,4943.04698,N,01405.87092,E,1,07,1.03,435.9,M,44.6,M,,*55
$GPGSA,A,3,09,30,02,05,23,06,16,,,,,,2.39,1.03,2.16*00
$GPGSV,3,1,10,02,34,264,29,05,32,304,29,06,24,215,31,07,74,132,28*76
$GPGSV,3,2,10,09,60,076,29,16,17,038,31,23,23,084,35,26,01,018,13*70
$GPGSV,3,3,10,29,02,326,27,30,43,200,15*71
$GPGLL,4943.04698,N,01405.87092,E,080235.00,A,A*68
$GPRMC,080236.00,A,4943.04694,N,01405.87101,E,0.077,,180317,,,A*79
$GPVTG,,T,,M,0.077,N,0.143,K,A*25
$GPGGA,080236.00,4943.04694,N,01405.87101,E,1,07,1.03,435.9,M,44.6,M,,*51
$GPGSA,A,3,09,30,02,05,23,06,16,,,,,,2.39,1.03,2.15*03
$GPGSV,3,1,10,02,34,264,28,05,32,304,30,06,24,215,32,07,74,132,27*73
$GPGSV,3,2,10,09,60,076,22,16,17,038,34,23,23,084,38,26,01,018,11*71
$GPGSV,3,3,10,29,02,326,28,30,43,200,13*78
$GPGLL,4943.04694,N,01405.87101,E,080236.00,A,A*6C
$GPRMC,080237.00,A,4943.04687,N,01405.87107,E,0.077,,180317,,,A*7C
$GPVTG,,T,,M,0.077,N,0.143,K,A*25
$GPGGA,080237.00,4943.04687,N,01405.87107,E,1,07,1.03,435.8,M,44.6,M,,*55
$GPGSA,A,3,09,30,02,05,23,06,16,,,,,,2.39,1.03,2.15*03
$GPGSV,3,1,10,02,34,264,29,05,32,304,31,06,24,215,32,07,74,132,28*7C
$GPGSV,3,2,10,09,60,076,29,16,17,038,34,23,23,084,38,26,01,018,*7A
$GPGSV,3,3,10,29,02,326,28,30,43,200,13*78
