Entry_id,GPS_message_type,Time,Lat,Lat_dir,Lon,Lon_dir,GPS_equal,Num_sats,Horizontal_dil,Altitude,Altitude_units,Geo_sep,Geo_sep_units,Age_gps_data,Ref_station_id,Upload_status
00000,$GPGGA,094905.00,4937.72070,N,1421.78491,E,1,010,12.3,5062.3,M,181.7,M,,*5F,Created
00001,$GPGGA,094905.00,4937.72070,N,1421.78491,E,1,010,8.3,5062.3,M,32.9,M,,*53,Forbidden
00002,$GPGGA,094938.00,4937.41699,N,1422.61035,E,1,010,12.3,5268.1,M,181.9,M,,*55,Created
00003,$GPGGA,094938.00,4937.41699,N,1422.61035,E,1,010,8.3,5268.1,M,31.9,M,,*54,Forbidden
00004,$GPGGA,094938.00,4937.41699,N,1422.61035,E,1,010,8.3,5268.1,M,31.9,M,,*54,Forbidden
00005,$GPGGA,095010.00,4937.10742,N,1423.47949,E,1,010,12.3,5461.4,M,182.1,M,,*52,Created
00006,$GPGGA,095010.00,4937.10742,N,1423.47949,E,1,010,8.4,5461.4,M,34.3,M,,*50,Forbidden
00007,$GPGGA,095010.00,4937.10742,N,1423.47949,E,1,010,8.4,5461.4,M,34.3,M,,*50,Forbidden
00008,$GPGGA,095026.00,4936.94727,N,1423.97107,E,1,010,12.3,5554.3,M,181.6,M,,*52,Created
00009,$GPGGA,095026.00,4936.94727,N,1423.97107,E,1,010,12.3,5554.3,M,181.6,M,,*52,Forbidden
00010,$GPGGA,095026.00,4936.94727,N,1423.97107,E,1,010,8.3,5554.3,M,32.3,M,,*55,Forbidden
00011,$GPGGA,095026.00,4936.94727,N,1423.97107,E,1,010,8.3,5554.3,M,32.3,M,,*55,Forbidden
00012,$GPGGA,095043.00,4936.79688,N,1424.45618,E,1,010,12.3,5657.2,M,181.6,M,,*56,Created
00013,$GPGGA,095043.00,4936.79688,N,1424.45618,E,1,010,12.3,5657.2,M,181.6,M,,*56,Forbidden
00014,$GPGGA,095115.00,4936.46777,N,1425.37769,E,1,011,12.3,5856.6,M,182.1,M,,*54,Created
00015,$GPGGA,095115.00,4936.46777,N,1425.37769,E,1,011,12.3,5856.6,M,182.1,M,,*54,Forbidden
00016,$GPGGA,095115.00,4936.46777,N,1425.37769,E,1,011,8.4,5856.6,M,33.5,M,,*57,Forbidden
00017,$GPGGA,095115.00,4936.46777,N,1425.37769,E,1,011,8.4,5856.6,M,33.5,M,,*57,Forbidden
00018,$GPGGA,095131.00,4936.31104,N,1425.87207,E,1,011,8.3,5961.9,M,33.3,M,,*5E,Created
00019,$GPGGA,095147.00,4936.12793,N,1426.33752,E,1,011,12.3,6064.7,M,181.4,M,,*5A,Created
00020,$GPGGA,095147.00,4936.12793,N,1426.33752,E,1,011,12.3,6064.7,M,181.4,M,,*5A,Forbidden
00021,$GPGGA,095147.00,4936.12793,N,1426.33752,E,1,011,8.4,6064.7,M,33.6,M,,*5C,Forbidden
00022,$GPGGA,095147.00,4936.12793,N,1426.33752,E,1,011,8.4,6064.7,M,33.6,M,,*5C,Forbidden
00023,$GPGGA,095204.00,4935.95117,N,1426.87000,E,1,010,12.3,6168.2,M,181.7,M,,*5D,Created
00024,$GPGGA,095204.00,4935.95117,N,1426.87000,E,1,010,12.3,6168.2,M,181.7,M,,*5D,Forbidden
00025,$GPGGA,095204.00,4935.95117,N,1426.87000,E,1,010,8.3,6168.2,M,32.4,M,,*5C,Forbidden
00026,$GPGGA,095204.00,4935.95117,N,1426.87000,E,1,010,8.3,6168.2,M,32.4,M,,*5C,Forbidden
00027,$GPGGA,095220.00,4935.75928,N,1427.37122,E,1,011,8.3,6257.4,M,32.3,M,,*54,Created
00028,$GPGGA,095220.00,4935.75928,N,1427.37122,E,1,011,8.3,6257.4,M,32.3,M,,*54,Forbidden
00029,$GPGGA,095236.00,4935.58008,N,01427.86719,E,1,09,12.3,6351.6,M,181.6,M,,*58,Created
00030,$GPGGA,095236.00,4935.58008,N,01427.86719,E,1,09,12.3,6351.6,M,181.6,M,,*58,Forbidden
00031,$GPGGA,095236.00,4935.58008,N,01427.86719,E,1,09,8.3,6351.6,M,33.1,M,,*5C,Forbidden
00032,$GPGGA,095236.00,4935.58008,N,01427.86719,E,1,09,8.3,6351.6,M,33.1,M,,*5C,Forbidden
00033,$GPGGA,095252.00,4935.40039,N,01428.35010,E,1,09,12.3,6454.4,M,181.2,M,,*5C,Created
00034,$GPGGA,095252.00,4935.40039,N,01428.35010,E,1,09,12.3,6454.4,M,181.2,M,,*5C,Forbidden
00035,$GPGGA,095252.00,4935.40039,N,01428.35010,E,1,09,8.3,6454.4,M,33.1,M,,*5C,Forbidden
00036,$GPGGA,095308.00,4935.22314,N,1428.86890,E,1,010,12.3,6552.0,M,181.7,M,,*5C,Created
00037,$GPGGA,095308.00,4935.22314,N,1428.86890,E,1,010,12.3,6552.0,M,181.7,M,,*5C,Forbidden
00038,$GPGGA,095308.00,4935.22314,N,1428.86890,E,1,010,8.3,6552.0,M,33.1,M,,*59,Forbidden
00039,$GPGGA,095308.00,4935.22314,N,1428.86890,E,1,010,8.3,6552.0,M,33.1,M,,*59,Forbidden
00040,$GPGGA,095325.00,4935.03906,N,1429.44373,E,1,010,12.3,6652.4,M,181.4,M,,*54,Created
00041,$GPGGA,095325.00,4935.03906,N,1429.44373,E,1,010,12.3,6652.4,M,181.4,M,,*54,Forbidden
00042,$GPGGA,095325.00,4935.03906,N,1429.44373,E,1,010,8.3,6652.4,M,32.3,M,,*51,Forbidden
00043,$GPGGA,095325.00,4935.03906,N,1429.44373,E,1,010,8.3,6652.4,M,32.3,M,,*51,Forbidden
00044,$GPGGA,095341.00,4934.84375,N,1429.97351,E,1,011,12.3,6755.2,M,181.6,M,,*5B,Created
00045,$GPGGA,095341.00,4934.84375,N,1429.97351,E,1,011,12.3,6755.2,M,181.6,M,,*5B,Forbidden
00046,$GPGGA,095341.00,4934.84375,N,1429.97351,E,1,011,8.3,6755.2,M,32.6,M,,*59,Forbidden
00047,$GPGGA,095341.00,4934.84375,N,1429.97351,E,1,011,8.3,6755.2,M,32.6,M,,*59,Forbidden
00048,$GPGGA,095357.00,4934.66455,N,1430.54700,E,1,011,12.3,6852.7,M,181.6,M,,*5F,Created
00049,$GPGGA,095413.00,4934.47607,N,1431.08948,E,1,011,12.3,6950.9,M,181.2,M,,*5D,Created
00050,$GPGGA,095413.00,4934.47607,N,1431.08948,E,1,011,12.3,6950.9,M,181.2,M,,*5D,Forbidden
00051,$GPGGA,095413.00,4934.47607,N,1431.08948,E,1,011,8.3,6950.9,M,32.4,M,,*59,Forbidden
00052,$GPGGA,095413.00,4934.47607,N,1431.08948,E,1,011,8.3,6950.9,M,32.4,M,,*59,Forbidden
00053,$GPGGA,095430.00,4934.28906,N,1431.68079,E,1,011,12.3,7049.3,M,181.6,M,,*58,Created
00054,$GPGGA,095430.00,4934.28906,N,1431.68079,E,1,011,12.3,7049.3,M,181.6,M,,*58,Forbidden
00055,$GPGGA,095430.00,4934.28906,N,1431.68079,E,1,011,8.3,7049.3,M,32.1,M,,*5D,Forbidden
00056,$GPGGA,095430.00,4934.28906,N,1431.68079,E,1,011,8.3,7049.3,M,32.1,M,,*5D,Forbidden
00057,$GPGGA,095446.00,4934.11621,N,1432.21082,E,1,011,12.3,7154.5,M,181.7,M,,*59,Created
00058,$GPGGA,095518.00,4933.75586,N,1433.28040,E,1,011,12.3,7330.9,M,181.2,M,,*57,Created
00059,$GPGGA,095518.00,4933.75586,N,1433.28040,E,1,011,12.3,7330.9,M,181.2,M,,*57,Forbidden
00060,$GPGGA,095518.00,4933.75586,N,1433.28040,E,1,011,8.3,7330.9,M,31.7,M,,*53,Forbidden
00061,$GPGGA,095518.00,4933.75586,N,1433.28040,E,1,011,8.3,7330.9,M,31.7,M,,*53,Forbidden
00062,$GPGGA,095534.00,4933.62793,N,1433.81104,E,1,011,12.3,7424.8,M,181.9,M,,*53,Created
00063,$GPGGA,095534.00,4933.62793,N,1433.81104,E,1,011,12.3,7424.8,M,181.9,M,,*53,Forbidden
00064,$GPGGA,095534.00,4933.62793,N,1433.81104,E,1,011,8.3,7424.8,M,32.1,M,,*59,Forbidden
00065,$GPGGA,095551.00,4933.46680,N,1434.36365,E,1,011,12.3,7534.0,M,181.2,M,,*58,Created
00066,$GPGGA,095551.00,4933.46680,N,1434.36365,E,1,011,12.3,7534.0,M,181.2,M,,*58,Forbidden
00067,$GPGGA,095551.00,4933.46680,N,1434.36365,E,1,011,8.3,7534.0,M,32.3,M,,*5B,Forbidden
00068,$GPGGA,095551.00,4933.46680,N,1434.36365,E,1,011,8.3,7534.0,M,32.3,M,,*5B,Forbidden
00069,$GPGGA,095607.00,4933.31592,N,1434.86694,E,1,010,12.3,7626.1,M,181.7,M,,*5D,Created
00070,$GPGGA,095607.00,4933.31592,N,1434.86694,E,1,010,12.3,7626.1,M,181.7,M,,*5D,Forbidden
00071,$GPGGA,095607.00,4933.31592,N,1434.86694,E,1,010,8.3,7626.1,M,32.4,M,,*5C,Forbidden
00072,$GPGGA,095607.00,4933.31592,N,1434.86694,E,1,010,8.3,7626.1,M,32.4,M,,*5C,Forbidden
00073,$GPGGA,095623.00,4933.18311,N,1435.37207,E,1,011,12.3,7722.1,M,181.6,M,,*5D,Created
00074,$GPGGA,095623.00,4933.18311,N,1435.37207,E,1,011,12.3,7722.1,M,181.6,M,,*5D,Forbidden
00075,$GPGGA,095623.00,4933.18311,N,1435.37207,E,1,011,8.3,7722.1,M,32.1,M,,*58,Forbidden
00076,$GPGGA,095623.00,4933.18311,N,1435.37207,E,1,011,8.3,7722.1,M,32.1,M,,*58,Forbidden
00077,$GPGGA,095639.00,4933.04199,N,1435.88025,E,1,011,12.3,7818.0,M,181.2,M,,*5C,Created
00078,$GPGGA,095639.00,4933.04199,N,1435.88025,E,1,011,12.3,7818.0,M,181.2,M,,*5C,Forbidden
00079,$GPGGA,095639.00,4933.04199,N,1435.88025,E,1,011,8.3,7818.0,M,31.9,M,,*56,Forbidden
00080,$GPGGA,095639.00,4933.04199,N,1435.88025,E,1,011,8.3,7818.0,M,31.9,M,,*56,Forbidden
00081,$GPGGA,095656.00,4932.86523,N,1436.40161,E,1,011,12.3,7920.7,M,181.2,M,,*50,Created
00082,$GPGGA,095656.00,4932.86523,N,1436.40161,E,1,011,12.3,7920.7,M,181.2,M,,*50,Forbidden
00083,$GPGGA,095656.00,4932.86523,N,1436.40161,E,1,011,8.3,7920.7,M,32.9,M,,*59,Forbidden
00084,$GPGGA,095656.00,4932.86523,N,1436.40161,E,1,011,8.3,7920.7,M,32.9,M,,*59,Forbidden
00085,$GPGGA,095712.00,4932.69727,N,1436.92834,E,1,010,12.3,8033.1,M,181.0,M,,*51,Created
00086,$GPGGA,095712.00,4932.69727,N,1436.92834,E,1,010,12.3,8033.1,M,181.0,M,,*51,Forbidden
00087,$GPGGA,095712.00,4932.69727,N,1436.92834,E,1,010,8.3,8033.1,M,30.9,M,,*58,Forbidden
00088,$GPGGA,095712.00,4932.69727,N,1436.92834,E,1,010,8.3,8033.1,M,30.9,M,,*58,Forbidden
00089,$GPGGA,095728.00,4932.53174,N,1437.43030,E,1,011,8.3,8135.7,M,31.2,M,,*53,Created
00090,$GPGGA,095728.00,4932.53174,N,1437.43030,E,1,011,8.3,8135.7,M,31.2,M,,*53,Forbidden
00091,$GPGGA,095744.00,4932.36133,N,1437.91736,E,1,010,12.3,8239.0,M,181.7,M,,*5A,Created
00092,$GPGGA,095744.00,4932.36133,N,1437.91736,E,1,010,8.3,8239.0,M,31.6,M,,*5A,Forbidden
00093,$GPGGA,095800.00,4932.20605,N,1438.37927,E,1,011,12.3,8352.9,M,181.2,M,,*5C,Created
00094,$GPGGA,095800.00,4932.20605,N,1438.37927,E,1,011,8.3,8352.9,M,31.1,M,,*5E,Forbidden
00095,$GPGGA,095817.00,4932.01758,N,1438.91187,E,1,011,12.3,8465.4,M,181.2,M,,*50,Created
00096,$GPGGA,095817.00,4932.01758,N,1438.91187,E,1,011,12.3,8465.4,M,181.2,M,,*50,Forbidden
00097,$GPGGA,095833.00,4931.80615,N,1439.41418,E,1,011,12.3,8564.2,M,181.0,M,,*5F,Created
00098,$GPGGA,095833.00,4931.80615,N,1439.41418,E,1,011,8.3,8564.2,M,31.2,M,,*5C,Forbidden
00099,$GPGGA,095849.00,4931.61475,N,01439.90344,E,1,09,12.3,8681.3,M,181.0,M,,*5B,Created
00100,$GPGGA,095849.00,4931.61475,N,01439.90344,E,1,09,12.3,8681.3,M,181.0,M,,*5B,Forbidden
00101,$GPGGA,095849.00,4931.61475,N,01439.90344,E,1,09,8.3,8681.3,M,32.1,M,,*58,Forbidden
00102,$GPGGA,095849.00,4931.61475,N,01439.90344,E,1,09,8.3,8681.3,M,32.1,M,,*58,Forbidden
00103,$GPGGA,095905.00,4931.38916,N,1440.42188,E,1,010,12.3,8801.7,M,181.2,M,,*5D,Created
00104,$GPGGA,095905.00,4931.38916,N,1440.42188,E,1,010,12.3,8801.7,M,181.2,M,,*5D,Forbidden
00105,$GPGGA,095905.00,4931.38916,N,1440.42188,E,1,010,8.3,8801.7,M,30.4,M,,*5B,Forbidden
00106,$GPGGA,095905.00,4931.38916,N,1440.42188,E,1,010,8.3,8801.7,M,30.4,M,,*5B,Forbidden
00107,$GPGGA,095921.00,4931.16504,N,1440.98901,E,1,010,12.3,8905.0,M,181.0,M,,*56,Created
00108,$GPGGA,095921.00,4931.16504,N,1440.98901,E,1,010,12.3,8905.0,M,181.0,M,,*56,Forbidden
00109,$GPGGA,095921.00,4931.16504,N,1440.98901,E,1,010,8.3,8905.0,M,31.2,M,,*55,Forbidden
00110,$GPGGA,095921.00,4931.16504,N,1440.98901,E,1,010,8.3,8905.0,M,31.2,M,,*55,Forbidden
00111,$GPGGA,095938.00,4930.90381,N,1441.61279,E,1,011,12.3,9023.9,M,180.9,M,,*55,Created
00112,$GPGGA,095938.00,4930.90381,N,1441.61279,E,1,011,12.3,9023.9,M,180.9,M,,*55,Forbidden
00113,$GPGGA,095938.00,4930.90381,N,1441.61279,E,1,011,8.3,9023.9,M,31.7,M,,*5B,Forbidden
00114,$GPGGA,095938.00,4930.90381,N,1441.61279,E,1,011,8.3,9023.9,M,31.7,M,,*5B,Forbidden
00115,$GPGGA,095954.00,4930.66357,N,01442.19727,E,1,09,12.3,9111.9,M,180.7,M,,*58,Created
00116,$GPGGA,095954.00,4930.66357,N,01442.19727,E,1,09,12.3,9111.9,M,180.7,M,,*58,Forbidden
00117,$GPGGA,095954.00,4930.66357,N,01442.19727,E,1,09,8.3,9111.9,M,31.6,M,,*59,Forbidden
00118,$GPGGA,095954.00,4930.66357,N,01442.19727,E,1,09,8.3,9111.9,M,31.6,M,,*59,Forbidden
00119,$GPGGA,100010.00,4930.42139,N,01442.79211,E,1,07,12.3,9199.2,M,181.4,M,,*51,Created
00120,$GPGGA,100010.00,4930.42139,N,01442.79211,E,1,07,12.3,9199.2,M,181.4,M,,*51,Forbidden
00121,$GPGGA,100010.00,4930.42139,N,01442.79211,E,1,07,8.3,9199.2,M,30.7,M,,*52,Forbidden
00122,$GPGGA,100010.00,4930.42139,N,01442.79211,E,1,07,8.3,9199.2,M,30.7,M,,*52,Forbidden
00123,$GPGGA,100026.00,4930.17969,N,01443.38025,E,1,09,12.3,9313.2,M,181.2,M,,*50,Created
00124,$GPGGA,100026.00,4930.17969,N,01443.38025,E,1,09,12.3,9313.2,M,181.2,M,,*50,Forbidden
00125,$GPGGA,100026.00,4930.17969,N,01443.38025,E,1,09,8.3,9313.2,M,30.4,M,,*56,Forbidden
00126,$GPGGA,100026.00,4930.17969,N,01443.38025,E,1,09,8.3,9313.2,M,30.4,M,,*56,Forbidden
00127,$GPGGA,100042.00,4929.95068,N,1444.02734,E,1,011,12.3,9423.9,M,180.9,M,,*5D,Created
00128,$GPGGA,100042.00,4929.95068,N,1444.02734,E,1,011,12.3,9423.9,M,180.9,M,,*5D,Forbidden
00129,$GPGGA,100042.00,4929.95068,N,1444.02734,E,1,011,8.3,9423.9,M,29.9,M,,*54,Forbidden
00130,$GPGGA,100042.00,4929.95068,N,1444.02734,E,1,011,8.3,9423.9,M,29.9,M,,*54,Forbidden
00131,$GPGGA,100059.00,4929.69043,N,1444.73059,E,1,010,12.3,9536.2,M,180.5,M,,*54,Created
00132,$GPGGA,100059.00,4929.69043,N,1444.73059,E,1,010,12.3,9536.2,M,180.5,M,,*54,Forbidden
00133,$GPGGA,100059.00,4929.69043,N,1444.73059,E,1,010,8.3,9536.2,M,31.6,M,,*57,Forbidden
00134,$GPGGA,100059.00,4929.69043,N,1444.73059,E,1,010,8.3,9536.2,M,31.6,M,,*57,Forbidden
00135,$GPGGA,100115.00,4929.45557,N,1445.41357,E,1,010,12.3,9653.5,M,181.4,M,,*59,Created
00136,$GPGGA,100115.00,4929.45557,N,1445.41357,E,1,010,12.3,9653.5,M,181.4,M,,*59,Forbidden
00137,$GPGGA,100115.00,4929.45557,N,1445.41357,E,1,010,8.3,9653.5,M,30.2,M,,*5F,Forbidden
00138,$GPGGA,100115.00,4929.45557,N,1445.41357,E,1,010,8.3,9653.5,M,30.2,M,,*5F,Forbidden
00139,$GPGGA,100131.00,4929.22119,N,1446.02917,E,1,011,12.3,9762.8,M,180.5,M,,*55,Created
00140,$GPGGA,100131.00,4929.22119,N,1446.02917,E,1,011,12.3,9762.8,M,180.5,M,,*55,Forbidden
00141,$GPGGA,100131.00,4929.22119,N,1446.02917,E,1,011,8.3,9762.8,M,30.7,M,,*56,Forbidden
00142,$GPGGA,100131.00,4929.22119,N,1446.02917,E,1,011,8.3,9762.8,M,30.7,M,,*56,Forbidden
00143,$GPGGA,100147.00,4928.96045,N,1446.66504,E,1,011,12.3,9875.0,M,180.5,M,,*5F,Created
00144,$GPGGA,100147.00,4928.96045,N,1446.66504,E,1,011,12.3,9875.0,M,180.5,M,,*5F,Forbidden
00145,$GPGGA,100147.00,4928.96045,N,1446.66504,E,1,011,8.3,9875.0,M,31.4,M,,*5E,Forbidden
00146,$GPGGA,100147.00,4928.96045,N,1446.66504,E,1,011,8.3,9875.0,M,31.4,M,,*5E,Forbidden
00147,$GPGGA,100204.00,4928.69580,N,1447.34729,E,1,011,12.3,9991.8,M,180.7,M,,*5D,Conflict
00148,$GPGGA,100204.00,4928.69580,N,1447.34729,E,1,011,12.3,9991.8,M,180.7,M,,*5D,Forbidden
00149,$GPGGA,100204.00,4928.69580,N,1447.34729,E,1,011,8.3,9991.8,M,31.1,M,,*5B,Forbidden
00150,$GPGGA,100204.00,4928.69580,N,1447.34729,E,1,011,8.3,9991.8,M,31.1,M,,*5B,Forbidden
00151,$GPGGA,100220.00,4928.43848,N,1447.99329,E,1,011,12.3,10084.9,M,180.5,M,,*6F,Forbidden
00152,$GPGGA,100220.00,4928.43848,N,1447.99329,E,1,011,12.3,10084.9,M,180.5,M,,*6F,Forbidden
00153,$GPGGA,100220.00,4928.43848,N,1447.99329,E,1,011,8.3,10084.9,M,30.5,M,,*6E,Forbidden
00154,$GPGGA,100220.00,4928.43848,N,1447.99329,E,1,011,8.3,10084.9,M,30.5,M,,*6E,Forbidden
00155,$GPGGA,100236.00,4928.18994,N,1448.64905,E,1,011,12.3,10197.1,M,180.4,M,,*65,Conflict
00156,$GPGGA,100236.00,4928.18994,N,1448.64905,E,1,011,12.3,10197.1,M,180.4,M,,*65,Forbidden
00157,$GPGGA,100236.00,4928.18994,N,1448.64905,E,1,011,8.2,10197.1,M,29.5,M,,*6C,Forbidden
00158,$GPGGA,100236.00,4928.18994,N,1448.64905,E,1,011,8.2,10197.1,M,29.5,M,,*6C,Forbidden
00159,$GPGGA,100252.00,4927.94189,N,1449.30115,E,1,011,12.3,10302.1,M,180.4,M,,*6F,Forbidden
00160,$GPGGA,100252.00,4927.94189,N,1449.30115,E,1,011,12.3,10302.1,M,180.4,M,,*6F,Forbidden
00161,$GPGGA,100252.00,4927.94189,N,1449.30115,E,1,011,8.2,10302.1,M,29.3,M,,*60,Forbidden
00162,$GPGGA,100252.00,4927.94189,N,1449.30115,E,1,011,8.2,10302.1,M,29.3,M,,*60,Forbidden
00163,$GPGGA,100308.00,4927.70166,N,1449.92603,E,1,010,12.3,10404.2,M,180.5,M,,*60,Created
00164,$GPGGA,100308.00,4927.70166,N,1449.92603,E,1,010,12.3,10404.2,M,180.5,M,,*60,Forbidden
00165,$GPGGA,100308.00,4927.70166,N,1449.92603,E,1,010,8.3,10404.2,M,30.4,M,,*60,Forbidden
00166,$GPGGA,100308.00,4927.70166,N,1449.92603,E,1,010,8.3,10404.2,M,30.4,M,,*60,Forbidden
00167,$GPGGA,100325.00,4927.46387,N,1450.57764,E,1,011,12.3,10500.5,M,181.0,M,,*61,Created
00168,$GPGGA,100325.00,4927.46387,N,1450.57764,E,1,011,12.3,10500.5,M,181.0,M,,*61,Forbidden
00169,$GPGGA,100325.00,4927.46387,N,1450.57764,E,1,011,8.3,10500.5,M,30.9,M,,*68,Forbidden
00170,$GPGGA,100325.00,4927.46387,N,1450.57764,E,1,011,8.3,10500.5,M,30.9,M,,*68,Forbidden
00171,$GPGGA,100341.00,4927.19434,N,1451.20959,E,1,011,12.3,10588.7,M,180.7,M,,*63,Created
00172,$GPGGA,100341.00,4927.19434,N,1451.20959,E,1,011,12.3,10588.7,M,180.7,M,,*63,Forbidden
00173,$GPGGA,100341.00,4927.19434,N,1451.20959,E,1,011,8.3,10588.7,M,30.5,M,,*60,Forbidden
00174,$GPGGA,100341.00,4927.19434,N,1451.20959,E,1,011,8.3,10588.7,M,30.5,M,,*60,Forbidden
00175,$GPGGA,100357.00,4926.91406,N,1451.79651,E,1,010,12.3,10686.5,M,180.5,M,,*63,Created
00176,$GPGGA,100357.00,4926.91406,N,1451.79651,E,1,010,12.3,10686.5,M,180.5,M,,*63,Forbidden
00177,$GPGGA,100357.00,4926.91406,N,1451.79651,E,1,010,8.3,10686.5,M,29.9,M,,*66,Forbidden
00178,$GPGGA,100357.00,4926.91406,N,1451.79651,E,1,010,8.3,10686.5,M,29.9,M,,*66,Forbidden
00179,$GPGGA,100413.00,4926.62598,N,1452.37207,E,1,010,12.3,10769.7,M,180.7,M,,*60,Created
00180,$GPGGA,100430.00,4926.31299,N,1452.95532,E,1,011,12.3,10866.9,M,180.5,M,,*65,Created
00181,$GPGGA,100430.00,4926.31299,N,1452.95532,E,1,011,12.3,10866.9,M,180.5,M,,*65,Forbidden
00182,$GPGGA,100430.00,4926.31299,N,1452.95532,E,1,011,8.3,10866.9,M,30.4,M,,*65,Forbidden
00183,$GPGGA,100430.00,4926.31299,N,1452.95532,E,1,011,8.3,10866.9,M,30.4,M,,*65,Forbidden
00184,$GPGGA,100446.00,4926.02783,N,1453.46570,E,1,010,12.3,10988.8,M,180.7,M,,*60,Created
00185,$GPGGA,100446.00,4926.02783,N,1453.46570,E,1,010,12.3,10988.8,M,180.7,M,,*60,Forbidden
00186,$GPGGA,100446.00,4926.02783,N,1453.46570,E,1,010,8.3,10988.8,M,30.5,M,,*63,Forbidden
00187,$GPGGA,100446.00,4926.02783,N,1453.46570,E,1,010,8.3,10988.8,M,30.5,M,,*63,Forbidden
00188,$GPGGA,100502.00,4925.73828,N,1453.91687,E,1,010,12.3,11097.8,M,180.9,M,,*63,Created
00189,$GPGGA,100502.00,4925.73828,N,1453.91687,E,1,010,12.3,11097.8,M,180.9,M,,*63,Forbidden
00190,$GPGGA,100502.00,4925.73828,N,1453.91687,E,1,010,8.2,11097.8,M,29.2,M,,*60,Forbidden
00191,$GPGGA,100502.00,4925.73828,N,1453.91687,E,1,010,8.2,11097.8,M,29.2,M,,*60,Forbidden
00192,$GPGGA,100518.00,4925.50684,N,1454.38782,E,1,011,12.3,11201.0,M,180.7,M,,*6B,Created
00193,$GPGGA,100518.00,4925.50684,N,1454.38782,E,1,011,12.3,11201.0,M,180.7,M,,*6B,Forbidden
00194,$GPGGA,100518.00,4925.50684,N,1454.38782,E,1,011,8.2,11201.0,M,28.5,M,,*60,Forbidden
00195,$GPGGA,100518.00,4925.50684,N,1454.38782,E,1,011,8.2,11201.0,M,28.5,M,,*60,Forbidden
00196,$GPGGA,100534.00,4925.26953,N,1454.84460,E,1,010,12.3,11322.3,M,180.5,M,,*69,Created
00197,$GPGGA,100534.00,4925.26953,N,1454.84460,E,1,010,12.3,11322.3,M,180.5,M,,*69,Forbidden
00198,$GPGGA,100534.00,4925.26953,N,1454.84460,E,1,010,8.2,11322.3,M,29.2,M,,*66,Forbidden
00199,$GPGGA,100534.00,4925.26953,N,1454.84460,E,1,010,8.2,11322.3,M,29.2,M,,*66,Forbidden
00200,$GPGGA,100551.00,4925.06299,N,01455.34631,E,1,08,12.3,11436.1,M,180.2,M,,*67,Created
00201,$GPGGA,100551.00,4925.06299,N,01455.34631,E,1,08,12.3,11436.1,M,180.2,M,,*67,Forbidden
00202,$GPGGA,100551.00,4925.06299,N,01455.34631,E,1,08,8.3,11436.1,M,30.0,M,,*64,Forbidden
00203,$GPGGA,100551.00,4925.06299,N,01455.34631,E,1,08,8.3,11436.1,M,30.0,M,,*64,Forbidden
00204,$GPGGA,100607.00,4924.90576,N,1455.81140,E,1,011,8.3,11538.0,M,30.0,M,,*65,Forbidden
00205,$GPGGA,100623.00,4924.72363,N,1456.30396,E,1,010,12.3,11678.7,M,180.2,M,,*6F,Created
00206,$GPGGA,100623.00,4924.72363,N,1456.30396,E,1,010,12.3,11678.7,M,180.2,M,,*6F,Forbidden
00207,$GPGGA,100623.00,4924.72363,N,1456.30396,E,1,010,8.2,11678.7,M,28.3,M,,*67,Forbidden
00208,$GPGGA,100623.00,4924.72363,N,1456.30396,E,1,010,8.2,11678.7,M,28.3,M,,*67,Forbidden
00209,$GPGGA,100639.00,4924.53809,N,1456.81580,E,1,010,12.3,11787.2,M,180.4,M,,*69,Created
00210,$GPGGA,100639.00,4924.53809,N,1456.81580,E,1,010,12.3,11787.2,M,180.4,M,,*69,Forbidden
00211,$GPGGA,100639.00,4924.53809,N,1456.81580,E,1,010,8.2,11787.2,M,28.3,M,,*67,Forbidden
00212,$GPGGA,100639.00,4924.53809,N,1456.81580,E,1,010,8.2,11787.2,M,28.3,M,,*67,Forbidden
00213,$GPGGA,100655.00,4924.29150,N,1457.35095,E,1,010,12.3,11892.2,M,180.0,M,,*6B,Created
00214,$GPGGA,100655.00,4924.29150,N,1457.35095,E,1,010,12.3,11892.2,M,180.0,M,,*6B,Forbidden
00215,$GPGGA,100655.00,4924.29150,N,1457.35095,E,1,010,8.3,11892.2,M,29.9,M,,*6B,Forbidden
00216,$GPGGA,100655.00,4924.29150,N,1457.35095,E,1,010,8.3,11892.2,M,29.9,M,,*6B,Forbidden
00217,$GPGGA,100712.00,4923.97217,N,1457.84631,E,1,010,12.3,11991.4,M,180.9,M,,*64,Created
00218,$GPGGA,100712.00,4923.97217,N,1457.84631,E,1,010,12.3,11991.4,M,180.9,M,,*64,Forbidden
00219,$GPGGA,100712.00,4923.97217,N,1457.84631,E,1,010,8.2,11991.4,M,28.3,M,,*67,Forbidden
00220,$GPGGA,100712.00,4923.97217,N,1457.84631,E,1,010,8.2,11991.4,M,28.3,M,,*67,Forbidden
00221,$GPGGA,100728.00,4923.68311,N,1458.23486,E,1,010,12.3,12109.7,M,180.0,M,,*66,Created
00222,$GPGGA,100728.00,4923.68311,N,1458.23486,E,1,010,12.3,12109.7,M,180.0,M,,*66,Forbidden
00223,$GPGGA,100728.00,4923.68311,N,1458.23486,E,1,010,8.2,12109.7,M,28.8,M,,*67,Forbidden
00224,$GPGGA,100728.00,4923.68311,N,1458.23486,E,1,010,8.2,12109.7,M,28.8,M,,*67,Forbidden
00225,$GPGGA,100744.00,4923.44189,N,1458.60254,E,1,010,12.3,12239.2,M,180.5,M,,*6F,Created
00226,$GPGGA,100744.00,4923.44189,N,1458.60254,E,1,010,12.3,12239.2,M,180.5,M,,*6F,Forbidden
00227,$GPGGA,100744.00,4923.44189,N,1458.60254,E,1,010,8.2,12239.2,M,28.5,M,,*66,Forbidden
00228,$GPGGA,100744.00,4923.44189,N,1458.60254,E,1,010,8.2,12239.2,M,28.5,M,,*66,Forbidden
00229,$GPGGA,100800.00,4923.25879,N,01458.91394,E,1,09,12.3,12367.2,M,180.7,M,,*62,Created
00230,$GPGGA,100800.00,4923.25879,N,01458.91394,E,1,09,8.2,12367.2,M,28.7,M,,*6B,Forbidden
00231,$GPGGA,100800.00,4923.25879,N,01458.91394,E,1,09,8.2,12367.2,M,28.7,M,,*6B,Forbidden
00232,$GPGGA,100816.00,4923.11621,N,1459.23657,E,1,010,12.3,12491.6,M,180.2,M,,*64,Created
00233,$GPGGA,100816.00,4923.11621,N,1459.23657,E,1,010,12.3,12491.6,M,180.2,M,,*64,Forbidden
00234,$GPGGA,100816.00,4923.11621,N,1459.23657,E,1,010,8.2,12491.6,M,27.8,M,,*68,Forbidden
00235,$GPGGA,100816.00,4923.11621,N,1459.23657,E,1,010,8.2,12491.6,M,27.8,M,,*68,Forbidden
00236,$GPGGA,100833.00,4922.98975,N,1459.59399,E,1,011,12.3,12609.6,M,180.4,M,,*63,Created
00237,$GPGGA,100833.00,4922.98975,N,1459.59399,E,1,011,12.3,12609.6,M,180.4,M,,*63,Forbidden
00238,$GPGGA,100833.00,4922.98975,N,1459.59399,E,1,011,8.2,12609.6,M,28.7,M,,*69,Forbidden
00239,$GPGGA,100833.00,4922.98975,N,1459.59399,E,1,011,8.2,12609.6,M,28.7,M,,*69,Forbidden
00240,$GPGGA,100849.00,4922.89355,N,1459.86743,E,1,010,12.3,12729.2,M,180.2,M,,*67,Created
00241,$GPGGA,100849.00,4922.89355,N,1459.86743,E,1,010,12.3,12729.2,M,180.2,M,,*67,Forbidden
00242,$GPGGA,100849.00,4922.89355,N,1459.86743,E,1,010,8.2,12729.2,M,28.3,M,,*6F,Forbidden
00243,$GPGGA,100849.00,4922.89355,N,1459.86743,E,1,010,8.2,12729.2,M,28.3,M,,*6F,Forbidden
00244,$GPGGA,100905.00,4922.75439,N,1500.14429,E,1,011,12.3,12845.0,M,179.8,M,,*63,Created
00245,$GPGGA,100905.00,4922.75439,N,1500.14429,E,1,011,12.3,12845.0,M,179.8,M,,*63,Forbidden
00246,$GPGGA,100905.00,4922.75439,N,1500.14429,E,1,011,8.2,12845.0,M,28.0,M,,*64,Forbidden
00247,$GPGGA,100905.00,4922.75439,N,1500.14429,E,1,011,8.2,12845.0,M,28.0,M,,*64,Forbidden
00248,$GPGGA,100921.00,4922.57812,N,1500.45105,E,1,011,12.3,12971.1,M,179.8,M,,*68,Created
00249,$GPGGA,100921.00,4922.57812,N,1500.45105,E,1,011,12.3,12971.1,M,179.8,M,,*68,Forbidden
00250,$GPGGA,100921.00,4922.57812,N,1500.45105,E,1,011,8.2,12971.1,M,27.5,M,,*65,Forbidden
00251,$GPGGA,100921.00,4922.57812,N,1500.45105,E,1,011,8.2,12971.1,M,27.5,M,,*65,Forbidden
00252,$GPGGA,100938.00,4922.42383,N,1500.77246,E,1,010,12.3,13100.5,M,180.2,M,,*64,Created
00253,$GPGGA,100938.00,4922.42383,N,1500.77246,E,1,010,12.3,13100.5,M,180.2,M,,*64,Forbidden
00254,$GPGGA,100954.00,4922.25195,N,1501.04712,E,1,011,12.3,13220.5,M,179.8,M,,*67,Created
00255,$GPGGA,100954.00,4922.25195,N,1501.04712,E,1,011,12.3,13220.5,M,179.8,M,,*67,Forbidden
00256,$GPGGA,100954.00,4922.25195,N,1501.04712,E,1,011,8.2,13220.5,M,26.8,M,,*66,Forbidden
00257,$GPGGA,100954.00,4922.25195,N,1501.04712,E,1,011,8.2,13220.5,M,26.8,M,,*66,Forbidden
00258,$GPGGA,101010.00,4922.07324,N,1501.24402,E,1,011,12.3,13316.4,M,180.4,M,,*68,Created
00259,$GPGGA,101010.00,4922.07324,N,1501.24402,E,1,011,12.3,13316.4,M,180.4,M,,*68,Forbidden
00260,$GPGGA,101010.00,4922.07324,N,1501.24402,E,1,011,8.2,13316.4,M,28.5,M,,*60,Forbidden
00261,$GPGGA,101010.00,4922.07324,N,1501.24402,E,1,011,8.2,13316.4,M,28.5,M,,*60,Forbidden
00262,$GPGGA,101026.00,4921.95166,N,1501.46655,E,1,010,12.3,13437.7,M,180.2,M,,*65,Created
00263,$GPGGA,101026.00,4921.95166,N,1501.46655,E,1,010,12.3,13437.7,M,180.2,M,,*65,Forbidden
00264,$GPGGA,101026.00,4921.95166,N,1501.46655,E,1,010,8.2,13437.7,M,26.6,M,,*66,Forbidden
00265,$GPGGA,101026.00,4921.95166,N,1501.46655,E,1,010,8.2,13437.7,M,26.6,M,,*66,Forbidden
00266,$GPGGA,101042.00,4921.83447,N,1501.68237,E,1,010,12.3,13523.7,M,179.8,M,,*62,Created
00267,$GPGGA,101042.00,4921.83447,N,1501.68237,E,1,010,12.3,13523.7,M,179.8,M,,*62,Forbidden
00268,$GPGGA,101042.00,4921.83447,N,1501.68237,E,1,010,8.2,13523.7,M,28.1,M,,*64,Forbidden
00269,$GPGGA,101042.00,4921.83447,N,1501.68237,E,1,010,8.2,13523.7,M,28.1,M,,*64,Forbidden
00270,$GPGGA,101059.00,4921.70312,N,01501.89661,E,1,09,12.3,13630.8,M,180.4,M,,*67,Created
00271,$GPGGA,101059.00,4921.70312,N,01501.89661,E,1,09,12.3,13630.8,M,180.4,M,,*67,Forbidden
00272,$GPGGA,101115.00,4921.60986,N,1502.09717,E,1,010,12.3,13732.8,M,180.9,M,,*65,Created
00273,$GPGGA,101115.00,4921.60986,N,1502.09717,E,1,010,12.3,13732.8,M,180.9,M,,*65,Forbidden
00274,$GPGGA,101115.00,4921.60986,N,1502.09717,E,1,010,8.2,13732.8,M,26.9,M,,*62,Forbidden
00275,$GPGGA,101115.00,4921.60986,N,1502.09717,E,1,010,8.2,13732.8,M,26.9,M,,*62,Forbidden
00276,$GPGGA,101131.00,4921.49902,N,01502.30115,E,1,09,12.3,13852.7,M,180.2,M,,*6F,Created
00277,$GPGGA,101131.00,4921.49902,N,01502.30115,E,1,09,8.2,13852.7,M,26.1,M,,*6B,Forbidden
00278,$GPGGA,101147.00,4921.43896,N,1502.53223,E,1,010,12.3,13956.4,M,180.0,M,,*67,Created
00279,$GPGGA,101147.00,4921.43896,N,1502.53223,E,1,010,12.3,13956.4,M,180.0,M,,*67,Forbidden
00280,$GPGGA,101147.00,4921.43896,N,1502.53223,E,1,010,8.2,13956.4,M,26.4,M,,*64,Forbidden
00281,$GPGGA,101147.00,4921.43896,N,1502.53223,E,1,010,8.2,13956.4,M,26.4,M,,*64,Forbidden
00282,$GPGGA,101203.00,4921.30127,N,1502.74805,E,1,011,12.3,14061.7,M,180.4,M,,*64,Created
00283,$GPGGA,101203.00,4921.30127,N,1502.74805,E,1,011,12.3,14061.7,M,180.4,M,,*64,Forbidden
00284,$GPGGA,101203.00,4921.30127,N,1502.74805,E,1,011,8.2,14061.7,M,26.6,M,,*61,Forbidden
00285,$GPGGA,101203.00,4921.30127,N,1502.74805,E,1,011,8.2,14061.7,M,26.6,M,,*61,Forbidden
00286,$GPGGA,101220.00,4921.22949,N,01502.92639,E,1,09,12.3,14184.8,M,180.5,M,,*62,Created
00287,$GPGGA,101220.00,4921.22949,N,01502.92639,E,1,09,12.3,14184.8,M,180.5,M,,*62,Forbidden
00288,$GPGGA,101220.00,4921.22949,N,01502.92639,E,1,09,8.2,14184.8,M,26.3,M,,*63,Forbidden
00289,$GPGGA,101220.00,4921.22949,N,01502.92639,E,1,09,8.2,14184.8,M,26.3,M,,*63,Forbidden
00290,$GPGGA,101236.00,4921.14111,N,01503.10901,E,1,09,12.3,14298.8,M,179.7,M,,*60,Created
00291,$GPGGA,101236.00,4921.14111,N,01503.10901,E,1,09,12.3,14298.8,M,179.7,M,,*60,Forbidden
00292,$GPGGA,101236.00,4921.14111,N,01503.10901,E,1,09,8.2,14298.8,M,27.3,M,,*64,Forbidden
00293,$GPGGA,101236.00,4921.14111,N,01503.10901,E,1,09,8.2,14298.8,M,27.3,M,,*64,Forbidden
00294,$GPGGA,101252.00,4921.09375,N,1503.31934,E,1,011,12.3,14417.9,M,179.7,M,,*62,Created
00295,$GPGGA,101252.00,4921.09375,N,1503.31934,E,1,011,12.3,14417.9,M,179.7,M,,*62,Forbidden
00296,$GPGGA,101252.00,4921.09375,N,1503.31934,E,1,011,8.1,14417.9,M,25.7,M,,*63,Forbidden
00297,$GPGGA,101252.00,4921.09375,N,1503.31934,E,1,011,8.1,14417.9,M,25.7,M,,*63,Forbidden
00298,$GPGGA,101308.00,4921.01855,N,1503.55652,E,1,010,12.2,14534.2,M,179.3,M,,*6F,Created
00299,$GPGGA,101308.00,4921.01855,N,1503.55652,E,1,010,12.2,14534.2,M,179.3,M,,*6F,Forbidden
00300,$GPGGA,101308.00,4921.01855,N,1503.55652,E,1,010,8.2,14534.2,M,26.9,M,,*65,Forbidden
00301,$GPGGA,101308.00,4921.01855,N,1503.55652,E,1,010,8.2,14534.2,M,26.9,M,,*65,Forbidden
00302,$GPGGA,101325.00,4920.95312,N,1503.73315,E,1,011,12.3,14662.5,M,180.2,M,,*66,Created
00303,$GPGGA,101325.00,4920.95312,N,1503.73315,E,1,011,12.3,14662.5,M,180.2,M,,*66,Forbidden
00304,$GPGGA,101325.00,4920.95312,N,1503.73315,E,1,011,8.2,14662.5,M,26.6,M,,*65,Forbidden
00305,$GPGGA,101325.00,4920.95312,N,1503.73315,E,1,011,8.2,14662.5,M,26.6,M,,*65,Forbidden
00306,$GPGGA,101341.00,4920.89600,N,1503.93567,E,1,010,12.3,14771.3,M,179.5,M,,*67,Created
00307,$GPGGA,101341.00,4920.89600,N,1503.93567,E,1,010,12.3,14771.3,M,179.5,M,,*67,Forbidden
00308,$GPGGA,101341.00,4920.89600,N,1503.93567,E,1,010,8.1,14771.3,M,25.6,M,,*65,Forbidden
00309,$GPGGA,101357.00,4920.80811,N,1504.10681,E,1,011,12.3,14873.7,M,179.7,M,,*6A,Created
00310,$GPGGA,101357.00,4920.80811,N,1504.10681,E,1,011,12.3,14873.7,M,179.7,M,,*6A,Forbidden
00311,$GPGGA,101357.00,4920.80811,N,1504.10681,E,1,011,8.2,14873.7,M,26.3,M,,*6F,Forbidden
00312,$GPGGA,101357.00,4920.80811,N,1504.10681,E,1,011,8.2,14873.7,M,26.3,M,,*6F,Forbidden
00313,$GPGGA,101413.00,4920.73828,N,1504.28223,E,1,010,12.3,15010.9,M,180.0,M,,*6E,Created
00314,$GPGGA,101413.00,4920.73828,N,1504.28223,E,1,010,12.3,15010.9,M,180.0,M,,*6E,Forbidden
00315,$GPGGA,101413.00,4920.73828,N,1504.28223,E,1,010,8.2,15010.9,M,26.8,M,,*61,Forbidden
00316,$GPGGA,101413.00,4920.73828,N,1504.28223,E,1,010,8.2,15010.9,M,26.8,M,,*61,Forbidden
00317,$GPGGA,101429.00,4920.67041,N,1504.45862,E,1,010,12.3,15120.6,M,180.0,M,,*6C,Created
00318,$GPGGA,101429.00,4920.67041,N,1504.45862,E,1,010,12.3,15120.6,M,180.0,M,,*6C,Forbidden
00319,$GPGGA,101429.00,4920.67041,N,1504.45862,E,1,010,8.1,15120.6,M,24.7,M,,*6D,Forbidden
00320,$GPGGA,101429.00,4920.67041,N,1504.45862,E,1,010,8.1,15120.6,M,24.7,M,,*6D,Forbidden
00321,$GPGGA,101446.00,4920.55176,N,1504.61987,E,1,010,12.2,15265.0,M,179.3,M,,*6D,Created
00322,$GPGGA,101446.00,4920.55176,N,1504.61987,E,1,010,12.2,15265.0,M,179.3,M,,*6D,Forbidden
00323,$GPGGA,101446.00,4920.55176,N,1504.61987,E,1,010,8.2,15265.0,M,26.1,M,,*6F,Forbidden
00324,$GPGGA,101446.00,4920.55176,N,1504.61987,E,1,010,8.2,15265.0,M,26.1,M,,*6F,Forbidden
00325,$GPGGA,101502.00,4920.42529,N,1504.72681,E,1,010,12.3,15393.0,M,179.8,M,,*6D,Created
00326,$GPGGA,101502.00,4920.42529,N,1504.72681,E,1,010,12.3,15393.0,M,179.8,M,,*6D,Forbidden
00327,$GPGGA,101502.00,4920.42529,N,1504.72681,E,1,010,8.2,15393.0,M,26.4,M,,*60,Forbidden
00328,$GPGGA,101502.00,4920.42529,N,1504.72681,E,1,010,8.2,15393.0,M,26.4,M,,*60,Forbidden
00329,$GPGGA,101518.00,4920.35596,N,1504.85046,E,1,010,12.3,15499.8,M,179.5,M,,*6F,Created
00330,$GPGGA,101518.00,4920.35596,N,1504.85046,E,1,010,12.3,15499.8,M,179.5,M,,*6F,Forbidden
00331,$GPGGA,101518.00,4920.35596,N,1504.85046,E,1,010,8.1,15499.8,M,25.2,M,,*69,Forbidden
00332,$GPGGA,101518.00,4920.35596,N,1504.85046,E,1,010,8.1,15499.8,M,25.2,M,,*69,Forbidden
00333,$GPGGA,101534.00,4920.28320,N,1505.01221,E,1,010,12.3,15595.5,M,179.7,M,,*6A,Created
00334,$GPGGA,101534.00,4920.28320,N,1505.01221,E,1,010,12.3,15595.5,M,179.7,M,,*6A,Forbidden
00335,$GPGGA,101534.00,4920.28320,N,1505.01221,E,1,010,8.1,15595.5,M,25.4,M,,*68,Forbidden
00336,$GPGGA,101534.00,4920.28320,N,1505.01221,E,1,010,8.1,15595.5,M,25.4,M,,*68,Forbidden
00337,$GPGGA,101550.00,4920.19385,N,01505.23938,E,1,09,12.3,15729.5,M,179.8,M,,*64,Created
00338,$GPGGA,101550.00,4920.19385,N,01505.23938,E,1,09,12.3,15729.5,M,179.8,M,,*64,Forbidden
00339,$GPGGA,101550.00,4920.19385,N,01505.23938,E,1,09,8.1,15729.5,M,25.7,M,,*6A,Forbidden
00340,$GPGGA,101550.00,4920.19385,N,01505.23938,E,1,09,8.1,15729.5,M,25.7,M,,*6A,Forbidden
00341,$GPGGA,101607.00,4920.12305,N,1505.39014,E,1,010,12.3,15807.1,M,179.7,M,,*6A,Created
00342,$GPGGA,101607.00,4920.12305,N,1505.39014,E,1,010,12.3,15807.1,M,179.7,M,,*6A,Forbidden
00343,$GPGGA,101607.00,4920.12305,N,1505.39014,E,1,010,8.1,15807.1,M,25.2,M,,*6E,Forbidden
00344,$GPGGA,101607.00,4920.12305,N,1505.39014,E,1,010,8.1,15807.1,M,25.2,M,,*6E,Forbidden
00345,$GPGGA,101623.00,4920.04199,N,01505.59961,E,1,09,12.3,15926.1,M,179.7,M,,*6B,Created
00346,$GPGGA,101623.00,4920.04199,N,01505.59961,E,1,09,12.3,15926.1,M,179.7,M,,*6B,Forbidden
00347,$GPGGA,101623.00,4920.04199,N,01505.59961,E,1,09,8.2,15926.1,M,26.1,M,,*6C,Forbidden
00348,$GPGGA,101623.00,4920.04199,N,01505.59961,E,1,09,8.2,15926.1,M,26.1,M,,*6C,Forbidden
00349,$GPGGA,101639.00,4919.96143,N,01505.84460,E,1,08,12.2,16043.2,M,179.3,M,,*64,Created
00350,$GPGGA,101639.00,4919.96143,N,01505.84460,E,1,08,12.2,16043.2,M,179.3,M,,*64,Forbidden
00351,$GPGGA,101639.00,4919.96143,N,01505.84460,E,1,08,8.2,16043.2,M,25.9,M,,*6D,Forbidden
00352,$GPGGA,101639.00,4919.96143,N,01505.84460,E,1,08,8.2,16043.2,M,25.9,M,,*6D,Forbidden
00353,$GPGGA,101655.00,4919.88574,N,1506.08923,E,1,010,12.3,16176.3,M,180.0,M,,*67,Created
00354,$GPGGA,101655.00,4919.88574,N,1506.08923,E,1,010,12.3,16176.3,M,180.0,M,,*67,Forbidden
00355,$GPGGA,101655.00,4919.88574,N,1506.08923,E,1,010,8.1,16176.3,M,25.2,M,,*62,Forbidden
00356,$GPGGA,101655.00,4919.88574,N,1506.08923,E,1,010,8.1,16176.3,M,25.2,M,,*62,Forbidden
00357,$GPGGA,101712.00,4919.85254,N,1506.33276,E,1,010,12.2,16299.3,M,179.2,M,,*69,Created
00358,$GPGGA,101712.00,4919.85254,N,1506.33276,E,1,010,12.2,16299.3,M,179.2,M,,*69,Forbidden
00359,$GPGGA,101712.00,4919.85254,N,1506.33276,E,1,010,8.1,16299.3,M,25.1,M,,*6A,Forbidden
00360,$GPGGA,101712.00,4919.85254,N,1506.33276,E,1,010,8.1,16299.3,M,25.1,M,,*6A,Forbidden
00361,$GPGGA,101728.00,4919.78125,N,1506.47229,E,1,010,12.2,16438.7,M,179.2,M,,*67,Created
00362,$GPGGA,101728.00,4919.78125,N,1506.47229,E,1,010,12.2,16438.7,M,179.2,M,,*67,Forbidden
00363,$GPGGA,101744.00,4919.70850,N,01506.61584,E,1,09,12.3,16549.5,M,180.2,M,,*60,Created
00364,$GPGGA,101744.00,4919.70850,N,01506.61584,E,1,09,12.3,16549.5,M,180.2,M,,*60,Forbidden
00365,$GPGGA,101744.00,4919.70850,N,01506.61584,E,1,09,8.1,16549.5,M,24.9,M,,*6D,Forbidden
00366,$GPGGA,101744.00,4919.70850,N,01506.61584,E,1,09,8.1,16549.5,M,24.9,M,,*6D,Forbidden
00367,$GPGGA,101800.00,4919.63574,N,01506.73413,E,1,09,12.3,16676.9,M,179.8,M,,*65,Created
00368,$GPGGA,101800.00,4919.63574,N,01506.73413,E,1,09,12.3,16676.9,M,179.8,M,,*65,Forbidden
00369,$GPGGA,101800.00,4919.63574,N,01506.73413,E,1,09,8.1,16676.9,M,24.5,M,,*68,Forbidden
00370,$GPGGA,101800.00,4919.63574,N,01506.73413,E,1,09,8.1,16676.9,M,24.5,M,,*68,Forbidden
00371,$GPGGA,101816.00,4919.54932,N,01506.85388,E,1,09,12.3,16797.5,M,179.8,M,,*66,Created
00372,$GPGGA,101816.00,4919.54932,N,01506.85388,E,1,09,12.3,16797.5,M,179.8,M,,*66,Forbidden
00373,$GPGGA,101816.00,4919.54932,N,01506.85388,E,1,09,8.1,16797.5,M,24.2,M,,*6C,Forbidden
00374,$GPGGA,101816.00,4919.54932,N,01506.85388,E,1,09,8.1,16797.5,M,24.2,M,,*6C,Forbidden
00375,$GPGGA,101833.00,4919.44873,N,1506.94092,E,1,010,12.3,16913.6,M,179.5,M,,*68,Created
00376,$GPGGA,101833.00,4919.44873,N,1506.94092,E,1,010,12.3,16913.6,M,179.5,M,,*68,Forbidden
00377,$GPGGA,101833.00,4919.44873,N,1506.94092,E,1,010,8.1,16913.6,M,24.9,M,,*64,Forbidden
00378,$GPGGA,101833.00,4919.44873,N,1506.94092,E,1,010,8.1,16913.6,M,24.9,M,,*64,Forbidden
00379,$GPGGA,101849.00,4919.38232,N,01507.05701,E,1,08,12.3,17020.4,M,179.5,M,,*66,Created
00380,$GPGGA,101849.00,4919.38232,N,01507.05701,E,1,08,12.3,17020.4,M,179.5,M,,*66,Forbidden
00381,$GPGGA,101849.00,4919.38232,N,01507.05701,E,1,08,8.1,17020.4,M,23.5,M,,*61,Forbidden
00382,$GPGGA,101849.00,4919.38232,N,01507.05701,E,1,08,8.1,17020.4,M,23.5,M,,*61,Forbidden
00383,$GPGGA,101905.00,4919.29492,N,1507.21729,E,1,010,12.3,17156.5,M,179.8,M,,*6A,Created
00384,$GPGGA,101905.00,4919.29492,N,1507.21729,E,1,010,12.3,17156.5,M,179.8,M,,*6A,Forbidden
00385,$GPGGA,101905.00,4919.29492,N,1507.21729,E,1,010,8.1,17156.5,M,24.5,M,,*67,Forbidden
00386,$GPGGA,101905.00,4919.29492,N,1507.21729,E,1,010,8.1,17156.5,M,24.5,M,,*67,Forbidden
00387,$GPGGA,101921.00,4919.22754,N,1507.31726,E,1,010,12.2,17268.7,M,178.8,M,,*6C,Created
00388,$GPGGA,101921.00,4919.22754,N,1507.31726,E,1,010,12.2,17268.7,M,178.8,M,,*6C,Forbidden
00389,$GPGGA,101921.00,4919.22754,N,1507.31726,E,1,010,8.1,17268.7,M,24.2,M,,*66,Forbidden
00390,$GPGGA,101921.00,4919.22754,N,1507.31726,E,1,010,8.1,17268.7,M,24.2,M,,*66,Forbidden
00391,$GPGGA,101937.00,4919.14600,N,01507.37964,E,1,09,12.2,17390.6,M,179.2,M,,*64,Created
00392,$GPGGA,101937.00,4919.14600,N,01507.37964,E,1,09,12.2,17390.6,M,179.2,M,,*64,Forbidden
00393,$GPGGA,101937.00,4919.14600,N,01507.37964,E,1,09,8.1,17390.6,M,24.7,M,,*60,Forbidden
00394,$GPGGA,101937.00,4919.14600,N,01507.37964,E,1,09,8.1,17390.6,M,24.7,M,,*60,Forbidden
00395,$GPGGA,101954.00,4919.07861,N,01507.44702,E,1,09,12.2,17521.5,M,179.3,M,,*6E,Created
00396,$GPGGA,101954.00,4919.07861,N,01507.44702,E,1,09,12.2,17521.5,M,179.3,M,,*6E,Forbidden
00397,$GPGGA,101954.00,4919.07861,N,01507.44702,E,1,09,8.1,17521.5,M,23.9,M,,*62,Forbidden
00398,$GPGGA,101954.00,4919.07861,N,01507.44702,E,1,09,8.1,17521.5,M,23.9,M,,*62,Forbidden
00399,$GPGGA,102010.00,4919.04932,N,01507.47168,E,1,08,12.2,17599.7,M,179.0,M,,*6A,Created
00400,$GPGGA,102010.00,4919.04932,N,01507.47168,E,1,08,12.2,17599.7,M,179.0,M,,*6A,Forbidden
00401,$GPGGA,102010.00,4919.04932,N,01507.47168,E,1,08,8.1,17599.7,M,22.7,M,,*6A,Forbidden
00402,$GPGGA,102010.00,4919.04932,N,01507.47168,E,1,08,8.1,17599.7,M,22.7,M,,*6A,Forbidden
00403,$GPGGA,102026.00,4919.02686,N,01507.45532,E,1,08,12.2,17513.7,M,179.2,M,,*60,Created
00404,$GPGGA,102026.00,4919.02686,N,01507.45532,E,1,08,12.2,17513.7,M,179.2,M,,*60,Forbidden
00405,$GPGGA,102026.00,4919.02686,N,01507.45532,E,1,08,8.1,17513.7,M,24.4,M,,*67,Forbidden
00406,$GPGGA,102026.00,4919.02686,N,01507.45532,E,1,08,8.1,17513.7,M,24.4,M,,*67,Forbidden
00407,$GPGGA,102042.00,4918.99707,N,01507.57568,E,1,07,12.2,17659.5,M,179.0,M,,*67,Created
00408,$GPGGA,102042.00,4918.99707,N,01507.57568,E,1,07,12.2,17659.5,M,179.0,M,,*67,Forbidden
00409,$GPGGA,102042.00,4918.99707,N,01507.57568,E,1,07,8.1,17659.5,M,22.5,M,,*65,Forbidden
00410,$GPGGA,102042.00,4918.99707,N,01507.57568,E,1,07,8.1,17659.5,M,22.5,M,,*65,Forbidden
00411,$GPGGA,102059.00,4918.97803,N,01507.75183,E,1,05,12.2,17840.2,M,179.3,M,,*69,Created
00412,$GPGGA,102059.00,4918.97803,N,01507.75183,E,1,05,12.2,17840.2,M,179.3,M,,*69,Forbidden
00413,$GPGGA,102059.00,4918.97803,N,01507.75183,E,1,05,8.1,17840.2,M,22.1,M,,*6C,Forbidden
00414,$GPGGA,102059.00,4918.97803,N,01507.75183,E,1,05,8.1,17840.2,M,22.1,M,,*6C,Forbidden
00415,$GPGGA,102115.00,4918.91602,N,01507.85742,E,1,07,12.2,18075.2,M,179.2,M,,*6F,Created
00416,$GPGGA,102115.00,4918.91602,N,01507.85742,E,1,07,12.2,18075.2,M,179.2,M,,*6F,Forbidden
00417,$GPGGA,102115.00,4918.91602,N,01507.85742,E,1,07,8.1,18075.2,M,23.0,M,,*6B,Forbidden
00418,$GPGGA,102115.00,4918.91602,N,01507.85742,E,1,07,8.1,18075.2,M,23.0,M,,*6B,Forbidden
00419,$GPGGA,102131.00,4918.85010,N,01507.96155,E,1,09,12.2,18258.5,M,179.2,M,,*6F,Created
00420,$GPGGA,102131.00,4918.85010,N,01507.96155,E,1,09,12.2,18258.5,M,179.2,M,,*6F,Forbidden
00421,$GPGGA,102131.00,4918.85010,N,01507.96155,E,1,09,8.1,18258.5,M,24.2,M,,*6E,Forbidden
00422,$GPGGA,102131.00,4918.85010,N,01507.96155,E,1,09,8.1,18258.5,M,24.2,M,,*6E,Forbidden
00423,$GPGGA,102147.00,4918.80420,N,01508.05957,E,1,09,12.2,18390.0,M,178.8,M,,*68,Created
00424,$GPGGA,102147.00,4918.80420,N,01508.05957,E,1,09,12.2,18390.0,M,178.8,M,,*68,Forbidden
00425,$GPGGA,102147.00,4918.80420,N,01508.05957,E,1,09,8.0,18390.0,M,21.8,M,,*6C,Forbidden
00426,$GPGGA,102147.00,4918.80420,N,01508.05957,E,1,09,8.0,18390.0,M,21.8,M,,*6C,Forbidden
00427,$GPGGA,102203.00,4918.75488,N,1508.20483,E,1,010,12.2,18505.2,M,179.2,M,,*6B,Created
00428,$GPGGA,102203.00,4918.75488,N,1508.20483,E,1,010,12.2,18505.2,M,179.2,M,,*6B,Forbidden
00429,$GPGGA,102203.00,4918.75488,N,1508.20483,E,1,010,8.1,18505.2,M,23.7,M,,*68,Forbidden
00430,$GPGGA,102203.00,4918.75488,N,1508.20483,E,1,010,8.1,18505.2,M,23.7,M,,*68,Forbidden
00431,$GPGGA,102220.00,4918.65820,N,01508.36047,E,1,08,12.2,18631.9,M,179.3,M,,*69,Created
00432,$GPGGA,102220.00,4918.65820,N,01508.36047,E,1,08,12.2,18631.9,M,179.3,M,,*69,Forbidden
00433,$GPGGA,102220.00,4918.65820,N,01508.36047,E,1,08,8.1,18631.9,M,23.0,M,,*6C,Forbidden
00434,$GPGGA,102220.00,4918.65820,N,01508.36047,E,1,08,8.1,18631.9,M,23.0,M,,*6C,Forbidden
00435,$GPGGA,102236.00,4918.54980,N,1508.52551,E,1,010,12.2,18748.0,M,179.3,M,,*68,Created
00436,$GPGGA,102236.00,4918.54980,N,1508.52551,E,1,010,12.2,18748.0,M,179.3,M,,*68,Forbidden
00437,$GPGGA,102236.00,4918.54980,N,1508.52551,E,1,010,8.1,18748.0,M,22.1,M,,*6D,Forbidden
00438,$GPGGA,102236.00,4918.54980,N,1508.52551,E,1,010,8.1,18748.0,M,22.1,M,,*6D,Forbidden
00439,$GPGGA,102252.00,4918.42725,N,01508.64331,E,1,09,12.2,18874.2,M,179.2,M,,*62,Created
00440,$GPGGA,102252.00,4918.42725,N,01508.64331,E,1,09,12.2,18874.2,M,179.2,M,,*62,Forbidden
00441,$GPGGA,102252.00,4918.42725,N,01508.64331,E,1,09,8.1,18874.2,M,23.3,M,,*65,Forbidden
00442,$GPGGA,102252.00,4918.42725,N,01508.64331,E,1,09,8.1,18874.2,M,23.3,M,,*65,Forbidden
00443,$GPGGA,102308.00,4918.34375,N,01508.69556,E,1,09,12.2,19011.7,M,178.6,M,,*6C,Created
00444,$GPGGA,102308.00,4918.34375,N,01508.69556,E,1,09,12.2,19011.7,M,178.6,M,,*6C,Forbidden
00445,$GPGGA,102308.00,4918.34375,N,01508.69556,E,1,09,8.1,19011.7,M,22.3,M,,*6F,Forbidden
00446,$GPGGA,102308.00,4918.34375,N,01508.69556,E,1,09,8.1,19011.7,M,22.3,M,,*6F,Forbidden
00447,$GPGGA,102324.00,4918.31592,N,01508.72351,E,1,07,12.2,18991.0,M,178.8,M,,*64,Created
00448,$GPGGA,102324.00,4918.31592,N,01508.72351,E,1,07,12.2,18991.0,M,178.8,M,,*64,Forbidden
00449,$GPGGA,102324.00,4918.31592,N,01508.72351,E,1,07,8.1,18991.0,M,22.5,M,,*6F,Forbidden
00450,$GPGGA,102324.00,4918.31592,N,01508.72351,E,1,07,8.1,18991.0,M,22.5,M,,*6F,Forbidden
00451,$GPGGA,102341.00,4918.25098,N,01508.68384,E,1,08,12.2,19207.6,M,178.6,M,,*6C,Created
00452,$GPGGA,102341.00,4918.25098,N,01508.68384,E,1,08,12.2,19207.6,M,178.6,M,,*6C,Forbidden
00453,$GPGGA,102341.00,4918.25098,N,01508.68384,E,1,08,8.1,19207.6,M,22.1,M,,*6D,Forbidden
00454,$GPGGA,102341.00,4918.25098,N,01508.68384,E,1,08,8.1,19207.6,M,22.1,M,,*6D,Forbidden
00455,$GPGGA,102357.00,4918.24658,N,01508.66125,E,1,06,12.2,19368.0,M,178.8,M,,*69,Created
00456,$GPGGA,102357.00,4918.24658,N,01508.66125,E,1,06,12.2,19368.0,M,178.8,M,,*69,Forbidden
00457,$GPGGA,102357.00,4918.24658,N,01508.66125,E,1,06,8.0,19368.0,M,22.0,M,,*66,Forbidden
00458,$GPGGA,102357.00,4918.24658,N,01508.66125,E,1,06,8.0,19368.0,M,22.0,M,,*66,Forbidden
00459,$GPGGA,102413.00,4918.22852,N,01508.65833,E,1,08,12.2,19517.1,M,178.6,M,,*6E,Created
00460,$GPGGA,102413.00,4918.22852,N,01508.65833,E,1,08,12.2,19517.1,M,178.6,M,,*6E,Forbidden
00461,$GPGGA,102413.00,4918.22852,N,01508.65833,E,1,08,8.1,19517.1,M,23.0,M,,*6F,Forbidden
00462,$GPGGA,102413.00,4918.22852,N,01508.65833,E,1,08,8.1,19517.1,M,23.0,M,,*6F,Forbidden
00463,$GPGGA,102429.00,4918.20605,N,1508.73389,E,1,010,12.3,19645.9,M,179.5,M,,*62,Created
00464,$GPGGA,102429.00,4918.20605,N,1508.73389,E,1,010,12.3,19645.9,M,179.5,M,,*62,Forbidden
00465,$GPGGA,102429.00,4918.20605,N,1508.73389,E,1,010,8.1,19645.9,M,23.3,M,,*63,Forbidden
00466,$GPGGA,102429.00,4918.20605,N,1508.73389,E,1,010,8.1,19645.9,M,23.3,M,,*63,Forbidden
00467,$GPGGA,102446.00,4918.17529,N,01508.80994,E,1,08,12.2,19784.8,M,178.5,M,,*6C,Created
00468,$GPGGA,102446.00,4918.17529,N,01508.80994,E,1,08,12.2,19784.8,M,178.5,M,,*6C,Forbidden
00469,$GPGGA,102446.00,4918.17529,N,01508.80994,E,1,08,8.0,19784.8,M,21.8,M,,*65,Forbidden
00470,$GPGGA,102446.00,4918.17529,N,01508.80994,E,1,08,8.0,19784.8,M,21.8,M,,*65,Forbidden
00471,$GPGGA,102502.00,4918.11426,N,01508.89331,E,1,08,12.2,19884.9,M,179.2,M,,*61,Created
00472,$GPGGA,102502.00,4918.11426,N,01508.89331,E,1,08,12.2,19884.9,M,179.2,M,,*61,Forbidden
00473,$GPGGA,102502.00,4918.11426,N,01508.89331,E,1,08,8.1,19884.9,M,22.3,M,,*67,Forbidden
00474,$GPGGA,102502.00,4918.11426,N,01508.89331,E,1,08,8.1,19884.9,M,22.3,M,,*67,Forbidden
00475,$GPGGA,102518.00,4918.04443,N,01508.92249,E,1,08,12.2,19992.3,M,178.5,M,,*63,Created
00476,$GPGGA,102518.00,4918.04443,N,01508.92249,E,1,08,12.2,19992.3,M,178.5,M,,*63,Forbidden
00477,$GPGGA,102518.00,4918.04443,N,01508.92249,E,1,08,8.1,19992.3,M,22.8,M,,*68,Forbidden
00478,$GPGGA,102518.00,4918.04443,N,01508.92249,E,1,08,8.1,19992.3,M,22.8,M,,*68,Forbidden
00479,$GPGGA,102534.00,4917.99170,N,01508.95630,E,1,08,12.2,20088.9,M,178.8,M,,*61,Created
00480,$GPGGA,102534.00,4917.99170,N,01508.95630,E,1,08,12.2,20088.9,M,178.8,M,,*61,Forbidden
00481,$GPGGA,102534.00,4917.99170,N,01508.95630,E,1,08,8.1,20088.9,M,22.3,M,,*6C,Forbidden
00482,$GPGGA,102550.00,4917.91748,N,01508.95227,E,1,09,12.2,20229.0,M,178.8,M,,*65,Created
00483,$GPGGA,102550.00,4917.91748,N,01508.95227,E,1,09,12.2,20229.0,M,178.8,M,,*65,Forbidden
00484,$GPGGA,102550.00,4917.91748,N,01508.95227,E,1,09,8.0,20229.0,M,21.5,M,,*6C,Forbidden
00485,$GPGGA,102550.00,4917.91748,N,01508.95227,E,1,09,8.0,20229.0,M,21.5,M,,*6C,Forbidden
00486,$GPGGA,102607.00,4917.86328,N,01508.95386,E,1,08,12.2,20352.7,M,178.6,M,,*6F,Created
00487,$GPGGA,102607.00,4917.86328,N,01508.95386,E,1,08,12.2,20352.7,M,178.6,M,,*6F,Forbidden
00488,$GPGGA,102623.00,4917.83594,N,01508.94592,E,1,08,12.2,20452.6,M,179.2,M,,*6C,Created
00489,$GPGGA,102623.00,4917.83594,N,01508.94592,E,1,08,12.2,20452.6,M,179.2,M,,*6C,Forbidden
00490,$GPGGA,102623.00,4917.83594,N,01508.94592,E,1,08,8.1,20452.6,M,22.8,M,,*61,Forbidden
00491,$GPGGA,102623.00,4917.83594,N,01508.94592,E,1,08,8.1,20452.6,M,22.8,M,,*61,Forbidden
00492,$GPGGA,102639.00,4917.82471,N,01508.96997,E,1,07,12.2,20580.9,M,178.3,M,,*69,Created
00493,$GPGGA,102639.00,4917.82471,N,01508.96997,E,1,07,12.2,20580.9,M,178.3,M,,*69,Forbidden
00494,$GPGGA,102639.00,4917.82471,N,01508.96997,E,1,07,8.0,20580.9,M,21.6,M,,*68,Forbidden
00495,$GPGGA,102639.00,4917.82471,N,01508.96997,E,1,07,8.0,20580.9,M,21.6,M,,*68,Forbidden
00496,$GPGGA,102655.00,4917.80518,N,01508.99146,E,1,07,12.2,20709.2,M,178.8,M,,*67,Created
00497,$GPGGA,102655.00,4917.80518,N,01508.99146,E,1,07,12.2,20709.2,M,178.8,M,,*67,Forbidden
00498,$GPGGA,102655.00,4917.80518,N,01508.99146,E,1,07,8.0,20709.2,M,22.0,M,,*68,Forbidden
00499,$GPGGA,102655.00,4917.80518,N,01508.99146,E,1,07,8.0,20709.2,M,22.0,M,,*68,Forbidden
00500,$GPGGA,102711.00,4917.80176,N,01509.02563,E,1,08,12.2,20830.7,M,179.0,M,,*6C,Created
00501,$GPGGA,102711.00,4917.80176,N,01509.02563,E,1,08,12.2,20830.7,M,179.0,M,,*6C,Forbidden
00502,$GPGGA,102711.00,4917.80176,N,01509.02563,E,1,08,8.0,20830.7,M,21.1,M,,*68,Forbidden
00503,$GPGGA,102711.00,4917.80176,N,01509.02563,E,1,08,8.0,20830.7,M,21.1,M,,*68,Forbidden
00504,$GPGGA,102728.00,4917.79980,N,01509.07617,E,1,07,12.2,20991.8,M,178.8,M,,*67,Conflict
00505,$GPGGA,102728.00,4917.79980,N,01509.07617,E,1,07,12.2,20991.8,M,178.8,M,,*67,Forbidden
00506,$GPGGA,102728.00,4917.79980,N,01509.07617,E,1,07,8.0,20991.8,M,21.1,M,,*6A,Forbidden
00507,$GPGGA,102728.00,4917.79980,N,01509.07617,E,1,07,8.0,20991.8,M,21.1,M,,*6A,Forbidden
00508,$GPGGA,102744.00,4917.79736,N,01509.10364,E,1,08,12.2,21096.8,M,178.6,M,,*67,Created
00509,$GPGGA,102744.00,4917.79736,N,01509.10364,E,1,08,12.2,21096.8,M,178.6,M,,*67,Forbidden
00510,$GPGGA,102744.00,4917.79736,N,01509.10364,E,1,08,8.0,21096.8,M,21.3,M,,*66,Forbidden
00511,$GPGGA,102744.00,4917.79736,N,01509.10364,E,1,08,8.0,21096.8,M,21.3,M,,*66,Forbidden
00512,$GPGGA,102800.00,4917.79492,N,01509.12219,E,1,06,12.2,21180.5,M,178.6,M,,*69,Created
00513,$GPGGA,102800.00,4917.79492,N,01509.12219,E,1,06,12.2,21180.5,M,178.6,M,,*69,Forbidden
00514,$GPGGA,102800.00,4917.79492,N,01509.12219,E,1,06,8.0,21180.5,M,21.3,M,,*68,Forbidden
00515,$GPGGA,102816.00,4917.77588,N,01509.17078,E,1,06,12.2,21251.8,M,178.5,M,,*6B,Created
00516,$GPGGA,102816.00,4917.77588,N,01509.17078,E,1,06,12.2,21251.8,M,178.5,M,,*6B,Forbidden
00517,$GPGGA,102816.00,4917.77588,N,01509.17078,E,1,06,8.0,21251.8,M,20.4,M,,*6F,Forbidden
00518,$GPGGA,102833.00,4917.74268,N,01509.17249,E,1,07,12.2,21429.4,M,179.2,M,,*64,Created
00519,$GPGGA,102833.00,4917.74268,N,01509.17249,E,1,07,12.2,21429.4,M,179.2,M,,*64,Forbidden
00520,$GPGGA,102833.00,4917.74268,N,01509.17249,E,1,07,8.0,21429.4,M,21.5,M,,*66,Forbidden
00521,$GPGGA,102833.00,4917.74268,N,01509.17249,E,1,07,8.0,21429.4,M,21.5,M,,*66,Forbidden
00522,$GPGGA,102849.00,4917.69678,N,01509.24023,E,1,09,12.2,21618.7,M,179.0,M,,*61,Created
00523,$GPGGA,102849.00,4917.69678,N,01509.24023,E,1,09,12.2,21618.7,M,179.0,M,,*61,Forbidden
00524,$GPGGA,102849.00,4917.69678,N,01509.24023,E,1,09,8.0,21618.7,M,20.3,M,,*66,Forbidden
00525,$GPGGA,102849.00,4917.69678,N,01509.24023,E,1,09,8.0,21618.7,M,20.3,M,,*66,Forbidden
00526,$GPGGA,102905.00,4917.64551,N,01509.32336,E,1,06,12.2,21770.8,M,178.5,M,,*66,Created
00527,$GPGGA,102905.00,4917.64551,N,01509.32336,E,1,06,12.2,21770.8,M,178.5,M,,*66,Forbidden
00528,$GPGGA,102905.00,4917.64551,N,01509.32336,E,1,06,8.0,21770.8,M,21.5,M,,*62,Forbidden
00529,$GPGGA,102905.00,4917.64551,N,01509.32336,E,1,06,8.0,21770.8,M,21.5,M,,*62,Forbidden
00530,$GPGGA,102921.00,4917.56250,N,01509.42578,E,1,09,12.2,21857.6,M,179.0,M,,*63,Created
00531,$GPGGA,102921.00,4917.56250,N,01509.42578,E,1,09,12.2,21857.6,M,179.0,M,,*63,Forbidden
00532,$GPGGA,102921.00,4917.56250,N,01509.42578,E,1,09,8.0,21857.6,M,21.5,M,,*63,Forbidden
00533,$GPGGA,102921.00,4917.56250,N,01509.42578,E,1,09,8.0,21857.6,M,21.5,M,,*63,Forbidden
00534,$GPGGA,102937.00,4917.47705,N,01509.47583,E,1,08,12.2,22006.0,M,178.5,M,,*6C,Created
00535,$GPGGA,102937.00,4917.47705,N,01509.47583,E,1,08,12.2,22006.0,M,178.5,M,,*6C,Forbidden
00536,$GPGGA,102937.00,4917.47705,N,01509.47583,E,1,08,8.0,22006.0,M,20.4,M,,*68,Forbidden
00537,$GPGGA,102937.00,4917.47705,N,01509.47583,E,1,08,8.0,22006.0,M,20.4,M,,*68,Forbidden
00538,$GPGGA,102954.00,4917.42334,N,01509.50159,E,1,09,12.2,22110.8,M,178.6,M,,*63,Created
00539,$GPGGA,102954.00,4917.42334,N,01509.50159,E,1,09,12.2,22110.8,M,178.6,M,,*63,Forbidden
00540,$GPGGA,102954.00,4917.42334,N,01509.50159,E,1,09,8.0,22110.8,M,22.0,M,,*62,Forbidden
00541,$GPGGA,102954.00,4917.42334,N,01509.50159,E,1,09,8.0,22110.8,M,22.0,M,,*62,Forbidden
00542,$GPGGA,103010.00,4917.35693,N,01509.51599,E,1,07,12.2,22223.5,M,179.3,M,,*6E,Created
00543,$GPGGA,103010.00,4917.35693,N,01509.51599,E,1,07,12.2,22223.5,M,179.3,M,,*6E,Forbidden
00544,$GPGGA,103010.00,4917.35693,N,01509.51599,E,1,07,8.0,22223.5,M,19.9,M,,*6A,Forbidden
00545,$GPGGA,103010.00,4917.35693,N,01509.51599,E,1,07,8.0,22223.5,M,19.9,M,,*6A,Forbidden
00546,$GPGGA,103026.00,4917.31348,N,01509.54248,E,1,07,12.2,22381.6,M,179.0,M,,*6B,Created
00547,$GPGGA,103026.00,4917.31348,N,01509.54248,E,1,07,12.2,22381.6,M,179.0,M,,*6B,Forbidden
00548,$GPGGA,103026.00,4917.31348,N,01509.54248,E,1,07,8.0,22381.6,M,20.4,M,,*6B,Forbidden
00549,$GPGGA,103026.00,4917.31348,N,01509.54248,E,1,07,8.0,22381.6,M,20.4,M,,*6B,Forbidden
00550,$GPGGA,103042.00,4917.26221,N,01509.54443,E,1,07,12.2,22501.3,M,178.6,M,,*60,Created
00551,$GPGGA,103042.00,4917.26221,N,01509.54443,E,1,07,12.2,22501.3,M,178.6,M,,*60,Forbidden
00552,$GPGGA,103042.00,4917.26221,N,01509.54443,E,1,07,8.0,22501.3,M,20.9,M,,*6A,Forbidden
00553,$GPGGA,103042.00,4917.26221,N,01509.54443,E,1,07,8.0,22501.3,M,20.9,M,,*6A,Forbidden
00554,$GPGGA,103058.00,4917.22949,N,01509.53369,E,1,08,12.2,22626.6,M,178.6,M,,*6E,Created
00555,$GPGGA,103058.00,4917.22949,N,01509.53369,E,1,08,12.2,22626.6,M,178.6,M,,*6E,Forbidden
00556,$GPGGA,103058.00,4917.22949,N,01509.53369,E,1,08,8.0,22626.6,M,20.1,M,,*6C,Forbidden
00557,$GPGGA,103058.00,4917.22949,N,01509.53369,E,1,08,8.0,22626.6,M,20.1,M,,*6C,Forbidden
00558,$GPGGA,103115.00,4917.18066,N,01509.58838,E,1,09,12.2,22779.4,M,178.6,M,,*67,Created
00559,$GPGGA,103115.00,4917.18066,N,01509.58838,E,1,09,12.2,22779.4,M,178.6,M,,*67,Forbidden
00560,$GPGGA,103115.00,4917.18066,N,01509.58838,E,1,09,8.0,22779.4,M,19.4,M,,*6A,Forbidden
00561,$GPGGA,103115.00,4917.18066,N,01509.58838,E,1,09,8.0,22779.4,M,19.4,M,,*6A,Forbidden
00562,$GPGGA,103131.00,4917.11670,N,01509.64075,E,1,06,12.2,22910.2,M,178.1,M,,*68,Created
00563,$GPGGA,103131.00,4917.11670,N,01509.64075,E,1,06,12.2,22910.2,M,178.1,M,,*68,Forbidden
00564,$GPGGA,103131.00,4917.11670,N,01509.64075,E,1,06,8.0,22910.2,M,20.8,M,,*64,Forbidden
00565,$GPGGA,103131.00,4917.11670,N,01509.64075,E,1,06,8.0,22910.2,M,20.8,M,,*64,Forbidden
00566,$GPGGA,103147.00,4917.04199,N,01509.67358,E,1,07,12.2,23038.2,M,177.8,M,,*67,Created
00567,$GPGGA,103147.00,4917.04199,N,01509.67358,E,1,07,12.2,23038.2,M,177.8,M,,*67,Forbidden
00568,$GPGGA,103147.00,4917.04199,N,01509.67358,E,1,07,8.0,23038.2,M,19.7,M,,*68,Forbidden
00569,$GPGGA,103147.00,4917.04199,N,01509.67358,E,1,07,8.0,23038.2,M,19.7,M,,*68,Forbidden
00570,$GPGGA,103203.00,4916.97607,N,01509.69263,E,1,07,12.2,23159.6,M,178.0,M,,*6D,Created
00571,$GPGGA,103203.00,4916.97607,N,01509.69263,E,1,07,12.2,23159.6,M,178.0,M,,*6D,Forbidden
00572,$GPGGA,103203.00,4916.97607,N,01509.69263,E,1,07,8.0,23159.6,M,19.9,M,,*6B,Forbidden
00573,$GPGGA,103203.00,4916.97607,N,01509.69263,E,1,07,8.0,23159.6,M,19.9,M,,*6B,Forbidden
00574,$GPGGA,103220.00,4916.93164,N,01509.69910,E,1,09,12.2,23303.0,M,178.6,M,,*66,Created
00575,$GPGGA,103220.00,4916.93164,N,01509.69910,E,1,09,12.2,23303.0,M,178.6,M,,*66,Forbidden
00576,$GPGGA,103220.00,4916.93164,N,01509.69910,E,1,09,8.0,23303.0,M,21.1,M,,*65,Forbidden
00577,$GPGGA,103220.00,4916.93164,N,01509.69910,E,1,09,8.0,23303.0,M,21.1,M,,*65,Forbidden
00578,$GPGGA,103236.00,4916.86133,N,01509.69702,E,1,07,12.2,23423.9,M,178.5,M,,*6B,Created
00579,$GPGGA,103236.00,4916.86133,N,01509.69702,E,1,07,12.2,23423.9,M,178.5,M,,*6B,Forbidden
00580,$GPGGA,103236.00,4916.86133,N,01509.69702,E,1,07,8.0,23423.9,M,19.6,M,,*67,Forbidden
00581,$GPGGA,103236.00,4916.86133,N,01509.69702,E,1,07,8.0,23423.9,M,19.6,M,,*67,Forbidden
00582,$GPGGA,103252.00,4916.80908,N,01509.68994,E,1,08,12.2,23549.7,M,178.0,M,,*66,Created
00583,$GPGGA,103252.00,4916.80908,N,01509.68994,E,1,08,12.2,23549.7,M,178.0,M,,*66,Forbidden
00584,$GPGGA,103252.00,4916.80908,N,01509.68994,E,1,08,8.0,23549.7,M,20.8,M,,*6B,Forbidden
00585,$GPGGA,103252.00,4916.80908,N,01509.68994,E,1,08,8.0,23549.7,M,20.8,M,,*6B,Forbidden
00586,$GPGGA,103308.00,4916.77490,N,01509.67834,E,1,08,12.2,23671.6,M,178.6,M,,*67,Created
00587,$GPGGA,103308.00,4916.77490,N,01509.67834,E,1,08,12.2,23671.6,M,178.6,M,,*67,Forbidden
00588,$GPGGA,103308.00,4916.77490,N,01509.67834,E,1,08,8.0,23671.6,M,20.1,M,,*65,Forbidden
00589,$GPGGA,103308.00,4916.77490,N,01509.67834,E,1,08,8.0,23671.6,M,20.1,M,,*65,Forbidden
00590,$GPGGA,103324.00,4916.75293,N,01509.66638,E,1,08,12.2,23809.8,M,178.5,M,,*61,Created
00591,$GPGGA,103324.00,4916.75293,N,01509.66638,E,1,08,12.2,23809.8,M,178.5,M,,*61,Forbidden
00592,$GPGGA,103324.00,4916.75293,N,01509.66638,E,1,08,8.0,23809.8,M,19.9,M,,*62,Forbidden
00593,$GPGGA,103324.00,4916.75293,N,01509.66638,E,1,08,8.0,23809.8,M,19.9,M,,*62,Forbidden
00594,$GPGGA,103341.00,4916.73584,N,01509.63098,E,1,08,12.2,23954.7,M,178.0,M,,*6F,Created
00595,$GPGGA,103341.00,4916.73584,N,01509.63098,E,1,08,12.2,23954.7,M,178.0,M,,*6F,Forbidden
00596,$GPGGA,103341.00,4916.73584,N,01509.63098,E,1,08,8.0,23954.7,M,19.9,M,,*69,Forbidden
00597,$GPGGA,103357.00,4916.74902,N,01509.63330,E,1,09,12.2,24073.3,M,178.6,M,,*64,Created
00598,$GPGGA,103357.00,4916.74902,N,01509.63330,E,1,09,12.2,24073.3,M,178.6,M,,*64,Forbidden
00599,$GPGGA,103357.00,4916.74902,N,01509.63330,E,1,09,8.0,24073.3,M,20.4,M,,*63,Forbidden
00600,$GPGGA,103357.00,4916.74902,N,01509.63330,E,1,09,8.0,24073.3,M,20.4,M,,*63,Forbidden
00601,$GPGGA,103413.00,4916.75684,N,01509.65247,E,1,09,12.2,24228.2,M,178.3,M,,*6C,Created
00602,$GPGGA,103413.00,4916.75684,N,01509.65247,E,1,09,12.2,24228.2,M,178.3,M,,*6C,Forbidden
00603,$GPGGA,103413.00,4916.75684,N,01509.65247,E,1,09,8.0,24228.2,M,20.8,M,,*62,Forbidden
00604,$GPGGA,103413.00,4916.75684,N,01509.65247,E,1,09,8.0,24228.2,M,20.8,M,,*62,Forbidden
00605,$GPGGA,103429.00,4916.74268,N,01509.67175,E,1,07,12.2,24354.1,M,178.1,M,,*67,Created
00606,$GPGGA,103429.00,4916.74268,N,01509.67175,E,1,07,12.2,24354.1,M,178.1,M,,*67,Forbidden
00607,$GPGGA,103429.00,4916.74268,N,01509.67175,E,1,07,8.0,24354.1,M,19.9,M,,*60,Forbidden
00608,$GPGGA,103429.00,4916.74268,N,01509.67175,E,1,07,8.0,24354.1,M,19.9,M,,*60,Forbidden
00609,$GPGGA,103445.00,4916.73047,N,01509.72375,E,1,07,12.2,24479.3,M,177.8,M,,*6F,Created
00610,$GPGGA,103445.00,4916.73047,N,01509.72375,E,1,07,12.2,24479.3,M,177.8,M,,*6F,Forbidden
00611,$GPGGA,103445.00,4916.73047,N,01509.72375,E,1,07,8.0,24479.3,M,19.7,M,,*60,Forbidden
00612,$GPGGA,103445.00,4916.73047,N,01509.72375,E,1,07,8.0,24479.3,M,19.7,M,,*60,Forbidden
00613,$GPGGA,103502.00,4916.70850,N,01509.79077,E,1,08,12.2,24603.0,M,178.3,M,,*6D,Created
00614,$GPGGA,103502.00,4916.70850,N,01509.79077,E,1,08,12.2,24603.0,M,178.3,M,,*6D,Forbidden
00615,$GPGGA,103502.00,4916.70850,N,01509.79077,E,1,08,8.0,24603.0,M,19.6,M,,*67,Forbidden
00616,$GPGGA,103502.00,4916.70850,N,01509.79077,E,1,08,8.0,24603.0,M,19.6,M,,*67,Forbidden
00617,$GPGGA,103518.00,4916.69531,N,01509.87891,E,1,09,12.2,24534.9,M,177.8,M,,*6E,Created
00618,$GPGGA,103518.00,4916.69531,N,01509.87891,E,1,09,12.2,24534.9,M,177.8,M,,*6E,Forbidden
00619,$GPGGA,103518.00,4916.69531,N,01509.87891,E,1,09,8.0,24534.9,M,19.1,M,,*67,Forbidden
00620,$GPGGA,103518.00,4916.69531,N,01509.87891,E,1,09,8.0,24534.9,M,19.1,M,,*67,Forbidden
00621,$GPGGA,103534.00,4916.63525,N,01510.00098,E,1,08,12.2,24644.7,M,178.1,M,,*64,Created
00622,$GPGGA,103534.00,4916.63525,N,01510.00098,E,1,08,12.2,24644.7,M,178.1,M,,*64,Forbidden
00623,$GPGGA,103534.00,4916.63525,N,01510.00098,E,1,08,8.0,24644.7,M,20.4,M,,*64,Forbidden
00624,$GPGGA,103534.00,4916.63525,N,01510.00098,E,1,08,8.0,24644.7,M,20.4,M,,*64,Forbidden
00625,$GPGGA,103550.00,4916.60645,N,01510.05298,E,1,07,12.2,24795.4,M,178.3,M,,*64,Created
00626,$GPGGA,103550.00,4916.60645,N,01510.05298,E,1,07,12.2,24795.4,M,178.3,M,,*64,Forbidden
00627,$GPGGA,103550.00,4916.60645,N,01510.05298,E,1,07,8.0,24795.4,M,18.4,M,,*6D,Forbidden
00628,$GPGGA,103550.00,4916.60645,N,01510.05298,E,1,07,8.0,24795.4,M,18.4,M,,*6D,Forbidden
00629,$GPGGA,103607.00,4916.58691,N,01510.11938,E,1,08,12.2,25088.9,M,177.4,M,,*63,Created
00630,$GPGGA,103607.00,4916.58691,N,01510.11938,E,1,08,12.2,25088.9,M,177.4,M,,*63,Forbidden
00631,$GPGGA,103607.00,4916.58691,N,01510.11938,E,1,08,8.0,25088.9,M,19.6,M,,*61,Forbidden
00632,$GPGGA,103607.00,4916.58691,N,01510.11938,E,1,08,8.0,25088.9,M,19.6,M,,*61,Forbidden
00633,$GPGGA,103623.00,4916.60938,N,01510.18762,E,1,07,12.2,25245.7,M,177.6,M,,*6A,Created
00634,$GPGGA,103623.00,4916.60938,N,01510.18762,E,1,07,12.2,25245.7,M,177.6,M,,*6A,Forbidden
00635,$GPGGA,103623.00,4916.60938,N,01510.18762,E,1,07,8.0,25245.7,M,19.4,M,,*68,Forbidden
00636,$GPGGA,103623.00,4916.60938,N,01510.18762,E,1,07,8.0,25245.7,M,19.4,M,,*68,Forbidden
00637,$GPGGA,103639.00,4916.60400,N,01510.27258,E,1,08,12.2,25393.5,M,178.1,M,,*68,Created
00638,$GPGGA,103639.00,4916.60400,N,01510.27258,E,1,08,12.2,25393.5,M,178.1,M,,*68,Forbidden
00639,$GPGGA,103639.00,4916.60400,N,01510.27258,E,1,08,8.0,25393.5,M,21.1,M,,*6C,Forbidden
00640,$GPGGA,103639.00,4916.60400,N,01510.27258,E,1,08,8.0,25393.5,M,21.1,M,,*6C,Forbidden
00641,$GPGGA,103655.00,4916.60010,N,01510.37585,E,1,08,12.2,25551.3,M,178.0,M,,*6E,Created
00642,$GPGGA,103655.00,4916.60010,N,01510.37585,E,1,08,12.2,25551.3,M,178.0,M,,*6E,Forbidden
00643,$GPGGA,103655.00,4916.60010,N,01510.37585,E,1,08,8.0,25551.3,M,18.9,M,,*69,Forbidden
00644,$GPGGA,103655.00,4916.60010,N,01510.37585,E,1,08,8.0,25551.3,M,18.9,M,,*69,Forbidden
00645,$GPGGA,103711.00,4916.58057,N,01510.44580,E,1,06,12.2,25686.2,M,178.3,M,,*63,Created
00646,$GPGGA,103711.00,4916.58057,N,01510.44580,E,1,06,12.2,25686.2,M,178.3,M,,*63,Forbidden
00647,$GPGGA,103711.00,4916.58057,N,01510.44580,E,1,06,8.0,25686.2,M,18.9,M,,*67,Forbidden
00648,$GPGGA,103711.00,4916.58057,N,01510.44580,E,1,06,8.0,25686.2,M,18.9,M,,*67,Forbidden
00649,$GPGGA,103728.00,4916.51709,N,01510.50464,E,1,08,12.2,25850.7,M,178.5,M,,*6A,Created
00650,$GPGGA,103728.00,4916.51709,N,01510.50464,E,1,08,12.2,25850.7,M,178.5,M,,*6A,Forbidden
00651,$GPGGA,103728.00,4916.51709,N,01510.50464,E,1,08,8.0,25850.7,M,18.7,M,,*66,Forbidden
00652,$GPGGA,103728.00,4916.51709,N,01510.50464,E,1,08,8.0,25850.7,M,18.7,M,,*66,Forbidden
00653,$GPGGA,103744.00,4916.43164,N,01510.56396,E,1,08,12.2,25983.3,M,178.1,M,,*6D,Created
00654,$GPGGA,103744.00,4916.43164,N,01510.56396,E,1,08,12.2,25983.3,M,178.1,M,,*6D,Forbidden
