Entry_id,GPS_message_type,Time,Lat,Lat_dir,Lon,Lon_dir,GPS_equal,Num_sats,Horizontal_dil,Altitude,Altitude_units,Geo_sep,Geo_sep_units,Age_gps_data,Ref_station_id,Upload_status
00000,$GPGGA,095026.00,4936.94727,N,1423.97107,E,1,010,8.3,5554.3,M,32.3,M,,*55,Created
00001,$GPGGA,095026.00,4936.94727,N,1423.97107,E,1,010,8.3,5554.3,M,32.3,M,,*55,Forbidden
00002,$GPGGA,095043.00,4936.79688,N,1424.45618,E,1,010,12.3,5657.2,M,181.6,M,,*56,Forbidden
00003,$GPGGA,095043.00,4936.79688,N,1424.45618,E,1,010,12.3,5657.2,M,181.6,M,,*56,Forbidden
00004,$GPGGA,095043.00,4936.79688,N,1424.45618,E,1,010,8.3,5657.2,M,32.6,M,,*54,Forbidden
00005,$GPGGA,095043.00,4936.79688,N,1424.45618,E,1,010,8.3,5657.2,M,32.6,M,,*54,Forbidden
00006,$GPGGA,095059.00,4936.64111,N,1424.92126,E,1,011,12.3,5753.1,M,182.2,M,,*56,Created
00007,$GPGGA,095115.00,4936.46777,N,1425.37769,E,1,011,12.3,5856.6,M,182.1,M,,*54,Forbidden
00008,$GPGGA,095115.00,4936.46777,N,1425.37769,E,1,011,12.3,5856.6,M,182.1,M,,*54,Forbidden
00009,$GPGGA,095115.00,4936.46777,N,1425.37769,E,1,011,8.4,5856.6,M,33.5,M,,*57,Forbidden
00010,$GPGGA,095115.00,4936.46777,N,1425.37769,E,1,011,8.4,5856.6,M,33.5,M,,*57,Forbidden
00011,$GPGGA,095131.00,4936.31104,N,1425.87207,E,1,011,12.3,5961.9,M,181.7,M,,*59,Conflict
00012,$GPGGA,095131.00,4936.31104,N,1425.87207,E,1,011,8.3,5961.9,M,33.3,M,,*5E,Forbidden
00013,$GPGGA,095131.00,4936.31104,N,1425.87207,E,1,011,8.3,5961.9,M,33.3,M,,*5E,Forbidden
00014,$GPGGA,095147.00,4936.12793,N,1426.33752,E,1,011,12.3,6064.7,M,181.4,M,,*5A,Forbidden
00015,$GPGGA,095147.00,4936.12793,N,1426.33752,E,1,011,12.3,6064.7,M,181.4,M,,*5A,Forbidden
00016,$GPGGA,095147.00,4936.12793,N,1426.33752,E,1,011,8.4,6064.7,M,33.6,M,,*5C,Forbidden
00017,$GPGGA,095204.00,4935.95117,N,1426.87000,E,1,010,12.3,6168.2,M,181.7,M,,*5D,Forbidden
00018,$GPGGA,095204.00,4935.95117,N,1426.87000,E,1,010,12.3,6168.2,M,181.7,M,,*5D,Forbidden
00019,$GPGGA,095204.00,4935.95117,N,1426.87000,E,1,010,8.3,6168.2,M,32.4,M,,*5C,Forbidden
00020,$GPGGA,095220.00,4935.75928,N,1427.37122,E,1,011,12.3,6257.4,M,181.7,M,,*52,Forbidden
00021,$GPGGA,095220.00,4935.75928,N,1427.37122,E,1,011,12.3,6257.4,M,181.7,M,,*52,Forbidden
00022,$GPGGA,095220.00,4935.75928,N,1427.37122,E,1,011,8.3,6257.4,M,32.3,M,,*54,Forbidden
00023,$GPGGA,095220.00,4935.75928,N,1427.37122,E,1,011,8.3,6257.4,M,32.3,M,,*54,Forbidden
00024,$GPGGA,095236.00,4935.58008,N,01427.86719,E,1,09,8.3,6351.6,M,33.1,M,,*5C,Forbidden
00025,$GPGGA,095236.00,4935.58008,N,01427.86719,E,1,09,8.3,6351.6,M,33.1,M,,*5C,Forbidden
00026,$GPGGA,095252.00,4935.40039,N,01428.35010,E,1,09,12.3,6454.4,M,181.2,M,,*5C,Forbidden
00027,$GPGGA,095252.00,4935.40039,N,01428.35010,E,1,09,12.3,6454.4,M,181.2,M,,*5C,Forbidden
00028,$GPGGA,095308.00,4935.22314,N,1428.86890,E,1,010,8.3,6552.0,M,33.1,M,,*59,Forbidden
00029,$GPGGA,095325.00,4935.03906,N,1429.44373,E,1,010,12.3,6652.4,M,181.4,M,,*54,Forbidden
00030,$GPGGA,095325.00,4935.03906,N,1429.44373,E,1,010,12.3,6652.4,M,181.4,M,,*54,Forbidden
00031,$GPGGA,095325.00,4935.03906,N,1429.44373,E,1,010,8.3,6652.4,M,32.3,M,,*51,Forbidden
00032,$GPGGA,095325.00,4935.03906,N,1429.44373,E,1,010,8.3,6652.4,M,32.3,M,,*51,Forbidden
00033,$GPGGA,095341.00,4934.84375,N,1429.97351,E,1,011,12.3,6755.2,M,181.6,M,,*5B,Forbidden
00034,$GPGGA,095357.00,4934.66455,N,1430.54700,E,1,011,12.3,6852.7,M,181.6,M,,*5F,Forbidden
00035,$GPGGA,095357.00,4934.66455,N,1430.54700,E,1,011,12.3,6852.7,M,181.6,M,,*5F,Forbidden
00036,$GPGGA,095357.00,4934.66455,N,1430.54700,E,1,011,8.3,6852.7,M,32.6,M,,*5D,Forbidden
00037,$GPGGA,095357.00,4934.66455,N,1430.54700,E,1,011,8.3,6852.7,M,32.6,M,,*5D,Forbidden
00038,$GPGGA,095413.00,4934.47607,N,1431.08948,E,1,011,12.3,6950.9,M,181.2,M,,*5D,Forbidden
00039,$GPGGA,095413.00,4934.47607,N,1431.08948,E,1,011,12.3,6950.9,M,181.2,M,,*5D,Forbidden
00040,$GPGGA,095413.00,4934.47607,N,1431.08948,E,1,011,8.3,6950.9,M,32.4,M,,*59,Forbidden
00041,$GPGGA,095413.00,4934.47607,N,1431.08948,E,1,011,8.3,6950.9,M,32.4,M,,*59,Forbidden
00042,$GPGGA,095430.00,4934.28906,N,1431.68079,E,1,011,12.3,7049.3,M,181.6,M,,*58,Forbidden
00043,$GPGGA,095430.00,4934.28906,N,1431.68079,E,1,011,12.3,7049.3,M,181.6,M,,*58,Forbidden
00044,$GPGGA,095430.00,4934.28906,N,1431.68079,E,1,011,8.3,7049.3,M,32.1,M,,*5D,Forbidden
00045,$GPGGA,095430.00,4934.28906,N,1431.68079,E,1,011,8.3,7049.3,M,32.1,M,,*5D,Forbidden
00046,$GPGGA,095446.00,4934.11621,N,1432.21082,E,1,011,12.3,7154.5,M,181.7,M,,*59,Forbidden
00047,$GPGGA,095446.00,4934.11621,N,1432.21082,E,1,011,12.3,7154.5,M,181.7,M,,*59,Forbidden
00048,$GPGGA,095446.00,4934.11621,N,1432.21082,E,1,011,8.3,7154.5,M,31.9,M,,*56,Forbidden
00049,$GPGGA,095446.00,4934.11621,N,1432.21082,E,1,011,8.3,7154.5,M,31.9,M,,*56,Forbidden
00050,$GPGGA,095502.00,4933.92920,N,1432.72217,E,1,011,12.3,7243.7,M,181.4,M,,*56,Created
00051,$GPGGA,095518.00,4933.75586,N,1433.28040,E,1,011,12.3,7330.9,M,181.2,M,,*57,Forbidden
00052,$GPGGA,095518.00,4933.75586,N,1433.28040,E,1,011,12.3,7330.9,M,181.2,M,,*57,Forbidden
00053,$GPGGA,095518.00,4933.75586,N,1433.28040,E,1,011,8.3,7330.9,M,31.7,M,,*53,Forbidden
00054,$GPGGA,095518.00,4933.75586,N,1433.28040,E,1,011,8.3,7330.9,M,31.7,M,,*53,Forbidden
00055,$GPGGA,095534.00,4933.62793,N,1433.81104,E,1,011,12.3,7424.8,M,181.9,M,,*53,Forbidden
00056,$GPGGA,095534.00,4933.62793,N,1433.81104,E,1,011,8.3,7424.8,M,32.1,M,,*59,Forbidden
00057,$GPGGA,095551.00,4933.46680,N,1434.36365,E,1,011,12.3,7534.0,M,181.2,M,,*58,Forbidden
00058,$GPGGA,095607.00,4933.31592,N,1434.86694,E,1,010,12.3,7626.1,M,181.7,M,,*5D,Forbidden
00059,$GPGGA,095607.00,4933.31592,N,1434.86694,E,1,010,12.3,7626.1,M,181.7,M,,*5D,Forbidden
00060,$GPGGA,095607.00,4933.31592,N,1434.86694,E,1,010,8.3,7626.1,M,32.4,M,,*5C,Forbidden
00061,$GPGGA,095607.00,4933.31592,N,1434.86694,E,1,010,8.3,7626.1,M,32.4,M,,*5C,Forbidden
00062,$GPGGA,095623.00,4933.18311,N,1435.37207,E,1,011,12.3,7722.1,M,181.6,M,,*5D,Forbidden
00063,$GPGGA,095623.00,4933.18311,N,1435.37207,E,1,011,12.3,7722.1,M,181.6,M,,*5D,Forbidden
00064,$GPGGA,095623.00,4933.18311,N,1435.37207,E,1,011,8.3,7722.1,M,32.1,M,,*58,Forbidden
00065,$GPGGA,095623.00,4933.18311,N,1435.37207,E,1,011,8.3,7722.1,M,32.1,M,,*58,Forbidden
00066,$GPGGA,095639.00,4933.04199,N,1435.88025,E,1,011,12.3,7818.0,M,181.2,M,,*5C,Forbidden
00067,$GPGGA,095639.00,4933.04199,N,1435.88025,E,1,011,8.3,7818.0,M,31.9,M,,*56,Forbidden
00068,$GPGGA,095639.00,4933.04199,N,1435.88025,E,1,011,8.3,7818.0,M,31.9,M,,*56,Forbidden
00069,$GPGGA,095656.00,4932.86523,N,1436.40161,E,1,011,12.3,7920.7,M,181.2,M,,*50,Forbidden
00070,$GPGGA,095656.00,4932.86523,N,1436.40161,E,1,011,12.3,7920.7,M,181.2,M,,*50,Forbidden
00071,$GPGGA,095656.00,4932.86523,N,1436.40161,E,1,011,8.3,7920.7,M,32.9,M,,*59,Forbidden
00072,$GPGGA,095656.00,4932.86523,N,1436.40161,E,1,011,8.3,7920.7,M,32.9,M,,*59,Forbidden
00073,$GPGGA,095712.00,4932.69727,N,1436.92834,E,1,010,12.3,8033.1,M,181.0,M,,*51,Forbidden
00074,$GPGGA,095712.00,4932.69727,N,1436.92834,E,1,010,12.3,8033.1,M,181.0,M,,*51,Forbidden
00075,$GPGGA,095712.00,4932.69727,N,1436.92834,E,1,010,8.3,8033.1,M,30.9,M,,*58,Forbidden
00076,$GPGGA,095712.00,4932.69727,N,1436.92834,E,1,010,8.3,8033.1,M,30.9,M,,*58,Forbidden
00077,$GPGGA,095728.00,4932.53174,N,1437.43030,E,1,011,12.3,8135.7,M,181.0,M,,*50,Forbidden
00078,$GPGGA,095728.00,4932.53174,N,1437.43030,E,1,011,12.3,8135.7,M,181.0,M,,*50,Forbidden
00079,$GPGGA,095728.00,4932.53174,N,1437.43030,E,1,011,8.3,8135.7,M,31.2,M,,*53,Forbidden
00080,$GPGGA,095728.00,4932.53174,N,1437.43030,E,1,011,8.3,8135.7,M,31.2,M,,*53,Forbidden
00081,$GPGGA,095744.00,4932.36133,N,1437.91736,E,1,010,12.3,8239.0,M,181.7,M,,*5A,Forbidden
00082,$GPGGA,095744.00,4932.36133,N,1437.91736,E,1,010,12.3,8239.0,M,181.7,M,,*5A,Forbidden
00083,$GPGGA,095744.00,4932.36133,N,1437.91736,E,1,010,8.3,8239.0,M,31.6,M,,*5A,Forbidden
00084,$GPGGA,095744.00,4932.36133,N,1437.91736,E,1,010,8.3,8239.0,M,31.6,M,,*5A,Forbidden
00085,$GPGGA,095800.00,4932.20605,N,1438.37927,E,1,011,12.3,8352.9,M,181.2,M,,*5C,Forbidden
00086,$GPGGA,095800.00,4932.20605,N,1438.37927,E,1,011,12.3,8352.9,M,181.2,M,,*5C,Forbidden
00087,$GPGGA,095800.00,4932.20605,N,1438.37927,E,1,011,8.3,8352.9,M,31.1,M,,*5E,Forbidden
00088,$GPGGA,095800.00,4932.20605,N,1438.37927,E,1,011,8.3,8352.9,M,31.1,M,,*5E,Forbidden
00089,$GPGGA,095817.00,4932.01758,N,1438.91187,E,1,011,12.3,8465.4,M,181.2,M,,*50,Forbidden
00090,$GPGGA,095817.00,4932.01758,N,1438.91187,E,1,011,12.3,8465.4,M,181.2,M,,*50,Forbidden
00091,$GPGGA,095817.00,4932.01758,N,1438.91187,E,1,011,8.3,8465.4,M,31.7,M,,*54,Forbidden
00092,$GPGGA,095833.00,4931.80615,N,1439.41418,E,1,011,12.3,8564.2,M,181.0,M,,*5F,Forbidden
00093,$GPGGA,095833.00,4931.80615,N,1439.41418,E,1,011,8.3,8564.2,M,31.2,M,,*5C,Forbidden
00094,$GPGGA,095833.00,4931.80615,N,1439.41418,E,1,011,8.3,8564.2,M,31.2,M,,*5C,Forbidden
00095,$GPGGA,095849.00,4931.61475,N,01439.90344,E,1,09,12.3,8681.3,M,181.0,M,,*5B,Forbidden
00096,$GPGGA,095849.00,4931.61475,N,01439.90344,E,1,09,12.3,8681.3,M,181.0,M,,*5B,Forbidden
00097,$GPGGA,095849.00,4931.61475,N,01439.90344,E,1,09,8.3,8681.3,M,32.1,M,,*58,Forbidden
00098,$GPGGA,095849.00,4931.61475,N,01439.90344,E,1,09,8.3,8681.3,M,32.1,M,,*58,Forbidden
00099,$GPGGA,095905.00,4931.38916,N,1440.42188,E,1,010,12.3,8801.7,M,181.2,M,,*5D,Forbidden
00100,$GPGGA,095905.00,4931.38916,N,1440.42188,E,1,010,12.3,8801.7,M,181.2,M,,*5D,Forbidden
00101,$GPGGA,095905.00,4931.38916,N,1440.42188,E,1,010,8.3,8801.7,M,30.4,M,,*5B,Forbidden
00102,$GPGGA,095905.00,4931.38916,N,1440.42188,E,1,010,8.3,8801.7,M,30.4,M,,*5B,Forbidden
00103,$GPGGA,095921.00,4931.16504,N,1440.98901,E,1,010,12.3,8905.0,M,181.0,M,,*56,Forbidden
00104,$GPGGA,095921.00,4931.16504,N,1440.98901,E,1,010,12.3,8905.0,M,181.0,M,,*56,Forbidden
00105,$GPGGA,095921.00,4931.16504,N,1440.98901,E,1,010,8.3,8905.0,M,31.2,M,,*55,Forbidden
00106,$GPGGA,095921.00,4931.16504,N,1440.98901,E,1,010,8.3,8905.0,M,31.2,M,,*55,Forbidden
00107,$GPGGA,095938.00,4930.90381,N,1441.61279,E,1,011,12.3,9023.9,M,180.9,M,,*55,Forbidden
00108,$GPGGA,095938.00,4930.90381,N,1441.61279,E,1,011,12.3,9023.9,M,180.9,M,,*55,Forbidden
00109,$GPGGA,095938.00,4930.90381,N,1441.61279,E,1,011,8.3,9023.9,M,31.7,M,,*5B,Forbidden
00110,$GPGGA,095938.00,4930.90381,N,1441.61279,E,1,011,8.3,9023.9,M,31.7,M,,*5B,Forbidden
00111,$GPGGA,095954.00,4930.66357,N,01442.19727,E,1,09,8.3,9111.9,M,31.6,M,,*59,Forbidden
00112,$GPGGA,100026.00,4930.17969,N,01443.38025,E,1,09,12.3,9313.2,M,181.2,M,,*50,Forbidden
00113,$GPGGA,100026.00,4930.17969,N,01443.38025,E,1,09,8.3,9313.2,M,30.4,M,,*56,Forbidden
00114,$GPGGA,100026.00,4930.17969,N,01443.38025,E,1,09,8.3,9313.2,M,30.4,M,,*56,Forbidden
00115,$GPGGA,100059.00,4929.69043,N,1444.73059,E,1,010,12.3,9536.2,M,180.5,M,,*54,Forbidden
00116,$GPGGA,100059.00,4929.69043,N,1444.73059,E,1,010,12.3,9536.2,M,180.5,M,,*54,Forbidden
00117,$GPGGA,100131.00,4929.22119,N,1446.02917,E,1,011,12.3,9762.8,M,180.5,M,,*55,Forbidden
00118,$GPGGA,100131.00,4929.22119,N,1446.02917,E,1,011,8.3,9762.8,M,30.7,M,,*56,Forbidden
00119,$GPGGA,100131.00,4929.22119,N,1446.02917,E,1,011,8.3,9762.8,M,30.7,M,,*56,Forbidden
00120,$GPGGA,100147.00,4928.96045,N,1446.66504,E,1,011,8.3,9875.0,M,31.4,M,,*5E,Forbidden
00121,$GPGGA,100147.00,4928.96045,N,1446.66504,E,1,011,8.3,9875.0,M,31.4,M,,*5E,Forbidden
00122,$GPGGA,100204.00,4928.69580,N,1447.34729,E,1,011,12.3,9991.8,M,180.7,M,,*5D,Created
00123,$GPGGA,100204.00,4928.69580,N,1447.34729,E,1,011,12.3,9991.8,M,180.7,M,,*5D,Forbidden
00124,$GPGGA,100204.00,4928.69580,N,1447.34729,E,1,011,8.3,9991.8,M,31.1,M,,*5B,Forbidden
00125,$GPGGA,100204.00,4928.69580,N,1447.34729,E,1,011,8.3,9991.8,M,31.1,M,,*5B,Forbidden
00126,$GPGGA,100220.00,4928.43848,N,1447.99329,E,1,011,12.3,10084.9,M,180.5,M,,*6F,Created
00127,$GPGGA,100220.00,4928.43848,N,1447.99329,E,1,011,12.3,10084.9,M,180.5,M,,*6F,Forbidden
00128,$GPGGA,100220.00,4928.43848,N,1447.99329,E,1,011,8.3,10084.9,M,30.5,M,,*6E,Forbidden
00129,$GPGGA,100220.00,4928.43848,N,1447.99329,E,1,011,8.3,10084.9,M,30.5,M,,*6E,Forbidden
00130,$GPGGA,100236.00,4928.18994,N,1448.64905,E,1,011,12.3,10197.1,M,180.4,M,,*65,Created
00131,$GPGGA,100236.00,4928.18994,N,1448.64905,E,1,011,12.3,10197.1,M,180.4,M,,*65,Forbidden
00132,$GPGGA,100236.00,4928.18994,N,1448.64905,E,1,011,8.2,10197.1,M,29.5,M,,*6C,Forbidden
00133,$GPGGA,100252.00,4927.94189,N,1449.30115,E,1,011,12.3,10302.1,M,180.4,M,,*6F,Created
00134,$GPGGA,0000-0.00,241454855514735675179008.00000,N,   0.00000,E,1,0103,297.2,-468.0,M,10849.9,M,,*4F,Created
00135,$GPGGA,100325.00,4927.46387,N,1450.57764,E,1,011,8.3,10500.5,M,30.9,M,,*68,Forbidden
00136,$GPGGA,100325.00,4927.46387,N,1450.57764,E,1,011,8.3,10500.5,M,30.9,M,,*68,Forbidden
00137,$GPGGA,100341.00,4927.19434,N,1451.20959,E,1,011,12.3,10588.7,M,180.7,M,,*63,Forbidden
00138,$GPGGA,100341.00,4927.19434,N,1451.20959,E,1,011,8.3,10588.7,M,30.5,M,,*60,Forbidden
00139,$GPGGA,100341.00,4927.19434,N,1451.20959,E,1,011,8.3,10588.7,M,30.5,M,,*60,Forbidden
00140,$GPGGA,100357.00,4926.91406,N,1451.79651,E,1,010,12.3,10686.5,M,180.5,M,,*63,Forbidden
00141,$GPGGA,100357.00,4926.91406,N,1451.79651,E,1,010,12.3,10686.5,M,180.5,M,,*63,Forbidden
00142,$GPGGA,100357.00,4926.91406,N,1451.79651,E,1,010,8.3,10686.5,M,29.9,M,,*66,Forbidden
00143,$GPGGA,100357.00,4926.91406,N,1451.79651,E,1,010,8.3,10686.5,M,29.9,M,,*66,Forbidden
00144,$GPGGA,100413.00,4926.62598,N,1452.37207,E,1,010,12.3,10769.7,M,180.7,M,,*60,Conflict
00145,$GPGGA,100413.00,4926.62598,N,1452.37207,E,1,010,12.3,10769.7,M,180.7,M,,*60,Forbidden
00146,$GPGGA,100413.00,4926.62598,N,1452.37207,E,1,010,8.3,10769.7,M,29.7,M,,*69,Forbidden
00147,$GPGGA,100413.00,4926.62598,N,1452.37207,E,1,010,8.3,10769.7,M,29.7,M,,*69,Forbidden
00148,$GPGGA,100446.00,4926.02783,N,1453.46570,E,1,010,8.3,10988.8,M,30.5,M,,*63,Forbidden
00149,$GPGGA,100502.00,4925.73828,N,1453.91687,E,1,010,12.3,11097.8,M,180.9,M,,*63,Forbidden
00150,$GPGGA,100502.00,4925.73828,N,1453.91687,E,1,010,8.2,11097.8,M,29.2,M,,*60,Forbidden
00151,$GPGGA,-61150820.00,   0.00000,N,2892611022928939310877128775669121024.00000,E,1,071,276.6,-1608.0,M,10079.3,M,,*4B,Created
00152,$GPGGA,100534.00,4925.26953,N,1454.84460,E,1,010,12.3,11322.3,M,180.5,M,,*69,Forbidden
00153,$GPGGA,100534.00,4925.26953,N,1454.84460,E,1,010,8.2,11322.3,M,29.2,M,,*66,Forbidden
00154,$GPGGA,100534.00,4925.26953,N,1454.84460,E,1,010,8.2,11322.3,M,29.2,M,,*66,Forbidden
00155,$GPGGA,100551.00,4925.06299,N,01455.34631,E,1,08,8.3,11436.1,M,30.0,M,,*64,Forbidden
00156,$GPGGA,100551.00,4925.06299,N,01455.34631,E,1,08,8.3,11436.1,M,30.0,M,,*64,Forbidden
00157,$GPGGA,100607.00,4924.90576,N,1455.81140,E,1,011,12.3,11538.0,M,180.5,M,,*61,Created
00158,$GPGGA,100607.00,4924.90576,N,1455.81140,E,1,011,8.3,11538.0,M,30.0,M,,*65,Forbidden
00159,$GPGGA,100607.00,4924.90576,N,1455.81140,E,1,011,8.3,11538.0,M,30.0,M,,*65,Forbidden
00160,$GPGGA,100623.00,4924.72363,N,1456.30396,E,1,010,12.3,11678.7,M,180.2,M,,*6F,Forbidden
00161,$GPGGA,100623.00,4924.72363,N,1456.30396,E,1,010,12.3,11678.7,M,180.2,M,,*6F,Forbidden
00162,$GPGGA,100623.00,4924.72363,N,1456.30396,E,1,010,8.2,11678.7,M,28.3,M,,*67,Forbidden
00163,$GPGGA,100623.00,4924.72363,N,1456.30396,E,1,010,8.2,11678.7,M,28.3,M,,*67,Forbidden
00164,$GPGGA,100639.00,4924.53809,N,1456.81580,E,1,010,12.3,11787.2,M,180.4,M,,*69,Forbidden
00165,$GPGGA,100639.00,4924.53809,N,1456.81580,E,1,010,12.3,11787.2,M,180.4,M,,*69,Forbidden
00166,$GPGGA,100639.00,4924.53809,N,1456.81580,E,1,010,8.2,11787.2,M,28.3,M,,*67,Forbidden
00167,$GPGGA,100639.00,4924.53809,N,1456.81580,E,1,010,8.2,11787.2,M,28.3,M,,*67,Forbidden
00168,$GPGGA,100655.00,4924.29150,N,1457.35095,E,1,010,12.3,11892.2,M,180.0,M,,*6B,Forbidden
00169,$GPGGA,100655.00,4924.29150,N,1457.35095,E,1,010,12.3,11892.2,M,180.0,M,,*6B,Forbidden
00170,$GPGGA,100655.00,4924.29150,N,1457.35095,E,1,010,8.3,11892.2,M,29.9,M,,*6B,Forbidden
00171,$GPGGA,100655.00,4924.29150,N,1457.35095,E,1,010,8.3,11892.2,M,29.9,M,,*6B,Forbidden
00172,$GPGGA,100712.00,4923.97217,N,1457.84631,E,1,010,12.3,11991.4,M,180.9,M,,*64,Forbidden
00173,$GPGGA,100712.00,4923.97217,N,1457.84631,E,1,010,12.3,11991.4,M,180.9,M,,*64,Forbidden
00174,$GPGGA,100712.00,4923.97217,N,1457.84631,E,1,010,8.2,11991.4,M,28.3,M,,*67,Forbidden
00175,$GPGGA,100712.00,4923.97217,N,1457.84631,E,1,010,8.2,11991.4,M,28.3,M,,*67,Forbidden
00176,$GPGGA,100728.00,4923.68311,N,1458.23486,E,1,010,12.3,12109.7,M,180.0,M,,*66,Forbidden
00177,$GPGGA,100728.00,4923.68311,N,1458.23486,E,1,010,12.3,12109.7,M,180.0,M,,*66,Forbidden
00178,$GPGGA,100728.00,4923.68311,N,1458.23486,E,1,010,8.2,12109.7,M,28.8,M,,*67,Forbidden
00179,$GPGGA,100728.00,4923.68311,N,1458.23486,E,1,010,8.2,12109.7,M,28.8,M,,*67,Forbidden
00180,$GPGGA,100744.00,4923.44189,N,1458.60254,E,1,010,12.3,12239.2,M,180.5,M,,*6F,Forbidden
00181,$GPGGA,100744.00,4923.44189,N,1458.60254,E,1,010,12.3,12239.2,M,180.5,M,,*6F,Forbidden
00182,$GPGGA,100744.00,4923.44189,N,1458.60254,E,1,010,8.2,12239.2,M,28.5,M,,*66,Forbidden
00183,$GPGGA,100744.00,4923.44189,N,1458.60254,E,1,010,8.2,12239.2,M,28.5,M,,*66,Forbidden
00184,$GPGGA,0000-0.00,232237139999012876713984.00000,N,   0.00000,E,1,071,254.2,-1856.0,M,9240.1,M,,*72,Created
00185,$GPGGA,100833.00,4922.98975,N,1459.59399,E,1,011,12.3,12609.6,M,180.4,M,,*63,Forbidden
00186,$GPGGA,100833.00,4922.98975,N,1459.59399,E,1,011,8.2,12609.6,M,28.7,M,,*69,Forbidden
00187,$GPGGA,100849.00,4922.89355,N,1459.86743,E,1,010,12.3,12729.2,M,180.2,M,,*67,Forbidden
00188,$GPGGA,100849.00,4922.89355,N,1459.86743,E,1,010,12.3,12729.2,M,180.2,M,,*67,Forbidden
00189,$GPGGA,100849.00,4922.89355,N,1459.86743,E,1,010,8.2,12729.2,M,28.3,M,,*6F,Forbidden
00190,$GPGGA,100849.00,4922.89355,N,1459.86743,E,1,010,8.2,12729.2,M,28.3,M,,*6F,Forbidden
00191,$GPGGA,100905.00,4922.75439,N,1500.14429,E,1,011,12.3,12845.0,M,179.8,M,,*63,Forbidden
00192,$GPGGA,100905.00,4922.75439,N,1500.14429,E,1,011,12.3,12845.0,M,179.8,M,,*63,Forbidden
00193,$GPGGA,100905.00,4922.75439,N,1500.14429,E,1,011,8.2,12845.0,M,28.0,M,,*64,Forbidden
00194,$GPGGA,100905.00,4922.75439,N,1500.14429,E,1,011,8.2,12845.0,M,28.0,M,,*64,Forbidden
00195,$GPGGA,0000-0.00,  -0.00000,N,-183798465661545705921674729052830695424.00000,E,1,071,247.7,-2640.0,M,8997.0,M,,*68,Created
00196,$GPGGA,100954.00,4922.25195,N,1501.04712,E,1,011,12.3,13220.5,M,179.8,M,,*67,Forbidden
00197,$GPGGA,100954.00,4922.25195,N,1501.04712,E,1,011,12.3,13220.5,M,179.8,M,,*67,Forbidden
00198,$GPGGA,100954.00,4922.25195,N,1501.04712,E,1,011,8.2,13220.5,M,26.8,M,,*66,Forbidden
00199,$GPGGA,100954.00,4922.25195,N,1501.04712,E,1,011,8.2,13220.5,M,26.8,M,,*66,Forbidden
00200,$GPGGA,101010.00,4922.07324,N,1501.24402,E,1,011,12.3,13316.4,M,180.4,M,,*68,Forbidden
00201,$GPGGA,101010.00,4922.07324,N,1501.24402,E,1,011,12.3,13316.4,M,180.4,M,,*68,Forbidden
00202,$GPGGA,101010.00,4922.07324,N,1501.24402,E,1,011,8.2,13316.4,M,28.5,M,,*60,Forbidden
00203,$GPGGA,101010.00,4922.07324,N,1501.24402,E,1,011,8.2,13316.4,M,28.5,M,,*60,Forbidden
00204,$GPGGA,101026.00,4921.95166,N,1501.46655,E,1,010,12.3,13437.7,M,180.2,M,,*65,Forbidden
00205,$GPGGA,101026.00,4921.95166,N,1501.46655,E,1,010,12.3,13437.7,M,180.2,M,,*65,Forbidden
00206,$GPGGA,101026.00,4921.95166,N,1501.46655,E,1,010,8.2,13437.7,M,26.6,M,,*66,Forbidden
00207,$GPGGA,101026.00,4921.95166,N,1501.46655,E,1,010,8.2,13437.7,M,26.6,M,,*66,Forbidden
00208,$GPGGA,101042.00,4921.83447,N,1501.68237,E,1,010,12.3,13523.7,M,179.8,M,,*62,Forbidden
00209,$GPGGA,101042.00,4921.83447,N,1501.68237,E,1,010,12.3,13523.7,M,179.8,M,,*62,Forbidden
00210,$GPGGA,101042.00,4921.83447,N,1501.68237,E,1,010,8.2,13523.7,M,28.1,M,,*64,Forbidden
00211,$GPGGA,0000 0.00,  -0.00000,N,       nan,E,1,071,240.1,-8112.6,M,8711.3,M,,*22,Created
00212,$GPGGA,101203.00,4921.30127,N,1502.74805,E,1,011,12.3,14061.7,M,180.4,M,,*64,Forbidden
00213,$GPGGA,101203.00,4921.30127,N,1502.74805,E,1,011,8.2,14061.7,M,26.6,M,,*61,Forbidden
00214,$GPGGA,101203.00,4921.30127,N,1502.74805,E,1,011,8.2,14061.7,M,26.6,M,,*61,Forbidden
00215,$GPGGA,0000-0.00,   0.00000,N,   0.00000,E,1,071,235.7,-5952.1,M,8546.7,M,,*6B,Created
00216,$GPGGA,101252.00,4921.09375,N,1503.31934,E,1,011,12.3,14417.9,M,179.7,M,,*62,Forbidden
00217,$GPGGA,101252.00,4921.09375,N,1503.31934,E,1,011,8.1,14417.9,M,25.7,M,,*63,Forbidden
00218,$GPGGA,101252.00,4921.09375,N,1503.31934,E,1,011,8.1,14417.9,M,25.7,M,,*63,Forbidden
00219,$GPGGA,101308.00,4921.01855,N,1503.55652,E,1,010,12.2,14534.2,M,179.3,M,,*6F,Forbidden
00220,$GPGGA,101308.00,4921.01855,N,1503.55652,E,1,010,12.2,14534.2,M,179.3,M,,*6F,Forbidden
00221,$GPGGA,101325.00,4920.95312,N,1503.73315,E,1,011,12.3,14662.5,M,180.2,M,,*66,Forbidden
00222,$GPGGA,101325.00,4920.95312,N,1503.73315,E,1,011,12.3,14662.5,M,180.2,M,,*66,Forbidden
00223,$GPGGA,101325.00,4920.95312,N,1503.73315,E,1,011,8.2,14662.5,M,26.6,M,,*65,Forbidden
00224,$GPGGA,0000 0.00,-169977950627979043088115376237534248960.00000,N,       nan,E,1,071,231.9,-9376.2,M,8405.3,M,,*25,Created
00225,$GPGGA,101446.00,4920.55176,N,1504.61987,E,1,010,8.2,15265.0,M,26.1,M,,*6F,Forbidden
00226,$GPGGA,101446.00,4920.55176,N,1504.61987,E,1,010,8.2,15265.0,M,26.1,M,,*6F,Forbidden
00227,$GPGGA,0000-0.06,   0.00000,N,   0.00000,E,1,069,228.3,-12608.2,M,8271.1,M,,*5C,Created
00228,$GPGGA,101655.00,4919.88574,N,1506.08923,E,1,010,12.3,16176.3,M,180.0,M,,*67,Forbidden
00229,$GPGGA,101655.00,4919.88574,N,1506.08923,E,1,010,12.3,16176.3,M,180.0,M,,*67,Forbidden
00230,$GPGGA,101655.00,4919.88574,N,1506.08923,E,1,010,8.1,16176.3,M,25.2,M,,*62,Forbidden
00231,$GPGGA,101655.00,4919.88574,N,1506.08923,E,1,010,8.1,16176.3,M,25.2,M,,*62,Forbidden
00232,$GPGGA,101712.00,4919.85254,N,1506.33276,E,1,010,12.2,16299.3,M,179.2,M,,*69,Conflict
00233,$GPGGA,101712.00,4919.85254,N,1506.33276,E,1,010,12.2,16299.3,M,179.2,M,,*69,Forbidden
00234,$GPGGA,101712.00,4919.85254,N,1506.33276,E,1,010,8.1,16299.3,M,25.1,M,,*6A,Forbidden
00235,$GPGGA,101712.00,4919.85254,N,1506.33276,E,1,010,8.1,16299.3,M,25.1,M,,*6A,Forbidden
00236,$GPGGA,101728.00,4919.78125,N,1506.47229,E,1,010,12.2,16438.7,M,179.2,M,,*67,Forbidden
00237,$GPGGA,101728.00,4919.78125,N,1506.47229,E,1,010,12.2,16438.7,M,179.2,M,,*67,Forbidden
00238,$GPGGA,101728.00,4919.78125,N,1506.47229,E,1,010,8.2,16438.7,M,25.9,M,,*6F,Forbidden
00239,$GPGGA,101728.00,4919.78125,N,1506.47229,E,1,010,8.2,16438.7,M,25.9,M,,*6F,Forbidden
00240,$GPGGA,101800.00,4919.63574,N,01506.73413,E,1,09,12.3,16676.9,M,179.8,M,,*65,Forbidden
00241,$GPGGA,101800.00,4919.63574,N,01506.73413,E,1,09,8.1,16676.9,M,24.5,M,,*68,Forbidden
00242,$GPGGA,101816.00,4919.54932,N,01506.85388,E,1,09,12.3,16797.5,M,179.8,M,,*66,Forbidden
00243,$GPGGA,101816.00,4919.54932,N,01506.85388,E,1,09,12.3,16797.5,M,179.8,M,,*66,Forbidden
00244,$GPGGA,101833.00,4919.44873,N,1506.94092,E,1,010,12.3,16913.6,M,179.5,M,,*68,Forbidden
00245,$GPGGA,101833.00,4919.44873,N,1506.94092,E,1,010,8.1,16913.6,M,24.9,M,,*64,Forbidden
00246,$GPGGA,101833.00,4919.44873,N,1506.94092,E,1,010,8.1,16913.6,M,24.9,M,,*64,Forbidden
00247,$GPGGA,101849.00,4919.38232,N,01507.05701,E,1,08,12.3,17020.4,M,179.5,M,,*66,Forbidden
00248,$GPGGA,101849.00,4919.38232,N,01507.05701,E,1,08,12.3,17020.4,M,179.5,M,,*66,Forbidden
00249,$GPGGA,101849.00,4919.38232,N,01507.05701,E,1,08,8.1,17020.4,M,23.5,M,,*61,Forbidden
00250,$GPGGA,101849.00,4919.38232,N,01507.05701,E,1,08,8.1,17020.4,M,23.5,M,,*61,Forbidden
00251,$GPGGA,101905.00,4919.29492,N,1507.21729,E,1,010,12.3,17156.5,M,179.8,M,,*6A,Forbidden
00252,$GPGGA,101921.00,4919.22754,N,1507.31726,E,1,010,12.2,17268.7,M,178.8,M,,*6C,Conflict
00253,$GPGGA,101921.00,4919.22754,N,1507.31726,E,1,010,12.2,17268.7,M,178.8,M,,*6C,Forbidden
00254,$GPGGA,101921.00,4919.22754,N,1507.31726,E,1,010,8.1,17268.7,M,24.2,M,,*66,Forbidden
00255,$GPGGA,101921.00,4919.22754,N,1507.31726,E,1,010,8.1,17268.7,M,24.2,M,,*66,Forbidden
00256,$GPGGA,101937.00,4919.14600,N,01507.37964,E,1,09,8.1,17390.6,M,24.7,M,,*60,Forbidden
00257,$GPGGA,101954.00,4919.07861,N,01507.44702,E,1,09,12.2,17521.5,M,179.3,M,,*6E,Forbidden
00258,$GPGGA,828796416.00,   0.00000,N,   0.00000,E,1,071,216.1,-48384.9,M,7812.4,M,,*78,Created
00259,$GPGGA,102010.00,4919.04932,N,01507.47168,E,1,08,8.1,17599.7,M,22.7,M,,*6A,Forbidden
00260,$GPGGA,102026.00,4919.02686,N,01507.45532,E,1,08,12.2,17513.7,M,179.2,M,,*60,Conflict
00261,$GPGGA,102026.00,4919.02686,N,01507.45532,E,1,08,12.2,17513.7,M,179.2,M,,*60,Forbidden
00262,$GPGGA,102026.00,4919.02686,N,01507.45532,E,1,08,8.1,17513.7,M,24.4,M,,*67,Forbidden
00263,$GPGGA,102026.00,4919.02686,N,01507.45532,E,1,08,8.1,17513.7,M,24.4,M,,*67,Forbidden
00264,$GPGGA,102042.00,4918.99707,N,01507.57568,E,1,07,12.2,17659.5,M,179.0,M,,*67,Conflict
00265,$GPGGA,102042.00,4918.99707,N,01507.57568,E,1,07,12.2,17659.5,M,179.0,M,,*67,Forbidden
00266,$GPGGA,102042.00,4918.99707,N,01507.57568,E,1,07,8.1,17659.5,M,22.5,M,,*65,Forbidden
00267,$GPGGA,102042.00,4918.99707,N,01507.57568,E,1,07,8.1,17659.5,M,22.5,M,,*65,Forbidden
00268,$GPGGA,102059.00,4918.97803,N,01507.75183,E,1,05,12.2,17840.2,M,179.3,M,,*69,Forbidden
00269,$GPGGA,102059.00,4918.97803,N,01507.75183,E,1,05,12.2,17840.2,M,179.3,M,,*69,Forbidden
00270,$GPGGA,102059.00,4918.97803,N,01507.75183,E,1,05,8.1,17840.2,M,22.1,M,,*6C,Forbidden
00271,$GPGGA,102059.00,4918.97803,N,01507.75183,E,1,05,8.1,17840.2,M,22.1,M,,*6C,Forbidden
00272,$GPGGA,102115.00,4918.91602,N,01507.85742,E,1,07,12.2,18075.2,M,179.2,M,,*6F,Forbidden
00273,$GPGGA,102115.00,4918.91602,N,01507.85742,E,1,07,12.2,18075.2,M,179.2,M,,*6F,Forbidden
00274,$GPGGA,102115.00,4918.91602,N,01507.85742,E,1,07,8.1,18075.2,M,23.0,M,,*6B,Forbidden
00275,$GPGGA,0000-0.00,  -0.00000,N,679755943220869581068639928320.00000,E,1,071,213.8,-66304.1,M,7726.3,M,,*44,Created
00276,$GPGGA,102147.00,4918.80420,N,01508.05957,E,1,09,8.0,18390.0,M,21.8,M,,*6C,Forbidden
00277,$GPGGA,102203.00,4918.75488,N,1508.20483,E,1,010,8.1,18505.2,M,23.7,M,,*68,Forbidden
00278,$GPGGA,102203.00,4918.75488,N,1508.20483,E,1,010,8.1,18505.2,M,23.7,M,,*68,Forbidden
00279,$GPGGA,0000-0.00,10406376510000920808378117648285696.00000,N,43821307523302545914317227687936.00000,E,1,071,211.4,-89088.1,M,7637.0,M,,*62,Created
00280,$GPGGA,0000-0.00,270044552626013529440256.00000,N,   0.00000,E,1,071,210.2,-93184.8,M,7594.0,M,,*43,Created
00281,$GPGGA,0000 0.00,   0.00000,N,   0.00000,E,1,071,208.6,-29504.4,M,7532.1,M,,*57,Created
00282,$GPGGA,102518.00,4918.04443,N,01508.92249,E,1,08,8.1,19992.3,M,22.8,M,,*68,Forbidden
00283,$GPGGA,102518.00,4918.04443,N,01508.92249,E,1,08,8.1,19992.3,M,22.8,M,,*68,Forbidden
00284,$GPGGA,102550.00,4917.91748,N,01508.95227,E,1,09,12.2,20229.0,M,178.8,M,,*65,Forbidden
00285,$GPGGA,102550.00,4917.91748,N,01508.95227,E,1,09,8.0,20229.0,M,21.5,M,,*6C,Forbidden
00286,$GPGGA,102550.00,4917.91748,N,01508.95227,E,1,09,8.0,20229.0,M,21.5,M,,*6C,Forbidden
00287,$GPGGA,102728.00,4917.79980,N,01509.07617,E,1,07,12.2,20991.8,M,178.8,M,,*67,Created
00288,$GPGGA,0000-0.00,-82822266880.00000,N,168701442444716576042458808320.00000,E,1,071,204.3,-352256.3,M,7372.8,M,,*78,Created
00289,$GPGGA,102744.00,4917.79736,N,01509.10364,E,1,08,8.0,21096.8,M,21.3,M,,*66,Forbidden
00290,$GPGGA,102744.00,4917.79736,N,01509.10364,E,1,08,8.0,21096.8,M,21.3,M,,*66,Forbidden
00291,$GPGGA,0000-0.00,41625506040003683233512470593142784.00000,N,-9448830340694016.00000,E,1,071,204.3,-409600.2,M,7372.0,M,,*72,Created
00292,$GPGGA,102816.00,4917.77588,N,01509.17078,E,1,06,12.2,21251.8,M,178.5,M,,*6B,Forbidden
00293,$GPGGA,102816.00,4917.77588,N,01509.17078,E,1,06,12.2,21251.8,M,178.5,M,,*6B,Forbidden
00294,$GPGGA,102816.00,4917.77588,N,01509.17078,E,1,06,8.0,21251.8,M,20.4,M,,*6F,Forbidden
00295,$GPGGA,102833.00,4917.74268,N,01509.17249,E,1,07,12.2,21429.4,M,179.2,M,,*64,Conflict
00296,$GPGGA,102833.00,4917.74268,N,01509.17249,E,1,07,12.2,21429.4,M,179.2,M,,*64,Forbidden
00297,$GPGGA,102833.00,4917.74268,N,01509.17249,E,1,07,8.0,21429.4,M,21.5,M,,*66,Forbidden
00298,$GPGGA,102833.00,4917.74268,N,01509.17249,E,1,07,8.0,21429.4,M,21.5,M,,*66,Forbidden
00299,$GPGGA,102849.00,4917.69678,N,01509.24023,E,1,09,12.2,21618.7,M,179.0,M,,*61,Forbidden
00300,$GPGGA,102849.00,4917.69678,N,01509.24023,E,1,09,8.0,21618.7,M,20.3,M,,*66,Forbidden
00301,$GPGGA,102849.00,4917.69678,N,01509.24023,E,1,09,8.0,21618.7,M,20.3,M,,*66,Forbidden
00302,$GPGGA,103026.00,4917.31348,N,01509.54248,E,1,07,12.2,22381.6,M,179.0,M,,*6B,Conflict
00303,$GPGGA,103026.00,4917.31348,N,01509.54248,E,1,07,12.2,22381.6,M,179.0,M,,*6B,Forbidden
00304,$GPGGA,103026.00,4917.31348,N,01509.54248,E,1,07,8.0,22381.6,M,20.4,M,,*6B,Forbidden
00305,$GPGGA,103026.00,4917.31348,N,01509.54248,E,1,07,8.0,22381.6,M,20.4,M,,*6B,Forbidden
00306,$GPGGA,103042.00,4917.26221,N,01509.54443,E,1,07,12.2,22501.3,M,178.6,M,,*60,Conflict
00307,$GPGGA,103042.00,4917.26221,N,01509.54443,E,1,07,12.2,22501.3,M,178.6,M,,*60,Forbidden
00308,$GPGGA,103042.00,4917.26221,N,01509.54443,E,1,07,8.0,22501.3,M,20.9,M,,*6A,Forbidden
00309,$GPGGA,103042.00,4917.26221,N,01509.54443,E,1,07,8.0,22501.3,M,20.9,M,,*6A,Forbidden
00310,$GPGGA,103058.00,4917.22949,N,01509.53369,E,1,08,12.2,22626.6,M,178.6,M,,*6E,Forbidden
00311,$GPGGA,103058.00,4917.22949,N,01509.53369,E,1,08,8.0,22626.6,M,20.1,M,,*6C,Forbidden
00312,$GPGGA,103058.00,4917.22949,N,01509.53369,E,1,08,8.0,22626.6,M,20.1,M,,*6C,Forbidden
00313,$GPGGA,103115.00,4917.18066,N,01509.58838,E,1,09,12.2,22779.4,M,178.6,M,,*67,Conflict
00314,$GPGGA,103115.00,4917.18066,N,01509.58838,E,1,09,12.2,22779.4,M,178.6,M,,*67,Forbidden
00315,$GPGGA,103115.00,4917.18066,N,01509.58838,E,1,09,8.0,22779.4,M,19.4,M,,*6A,Forbidden
00316,$GPGGA,103131.00,4917.11670,N,01509.64075,E,1,06,12.2,22910.2,M,178.1,M,,*68,Forbidden
00317,$GPGGA,103131.00,4917.11670,N,01509.64075,E,1,06,8.0,22910.2,M,20.8,M,,*64,Forbidden
00318,$GPGGA,103131.00,4917.11670,N,01509.64075,E,1,06,8.0,22910.2,M,20.8,M,,*64,Forbidden
00319,$GPGGA,103147.00,4917.04199,N,01509.67358,E,1,07,12.2,23038.2,M,177.8,M,,*67,Forbidden
00320,$GPGGA,103147.00,4917.04199,N,01509.67358,E,1,07,8.0,23038.2,M,19.7,M,,*68,Forbidden
00321,$GPGGA,103203.00,4916.97607,N,01509.69263,E,1,07,12.2,23159.6,M,178.0,M,,*6D,Forbidden
00322,$GPGGA,103203.00,4916.97607,N,01509.69263,E,1,07,12.2,23159.6,M,178.0,M,,*6D,Forbidden
00323,$GPGGA,103203.00,4916.97607,N,01509.69263,E,1,07,8.0,23159.6,M,19.9,M,,*6B,Forbidden
00324,$GPGGA,103203.00,4916.97607,N,01509.69263,E,1,07,8.0,23159.6,M,19.9,M,,*6B,Forbidden
00325,$GPGGA,103220.00,4916.93164,N,01509.69910,E,1,09,12.2,23303.0,M,178.6,M,,*66,Forbidden
00326,$GPGGA,103220.00,4916.93164,N,01509.69910,E,1,09,12.2,23303.0,M,178.6,M,,*66,Forbidden
00327,$GPGGA,103220.00,4916.93164,N,01509.69910,E,1,09,8.0,23303.0,M,21.1,M,,*65,Forbidden
00328,$GPGGA,103220.00,4916.93164,N,01509.69910,E,1,09,8.0,23303.0,M,21.1,M,,*65,Forbidden
00329,$GPGGA,103236.00,4916.86133,N,01509.69702,E,1,07,12.2,23423.9,M,178.5,M,,*6B,Forbidden
00330,$GPGGA,103236.00,4916.86133,N,01509.69702,E,1,07,12.2,23423.9,M,178.5,M,,*6B,Forbidden
00331,$GPGGA,103236.00,4916.86133,N,01509.69702,E,1,07,8.0,23423.9,M,19.6,M,,*67,Forbidden
00332,$GPGGA,103236.00,4916.86133,N,01509.69702,E,1,07,8.0,23423.9,M,19.6,M,,*67,Forbidden
00333,$GPGGA,103252.00,4916.80908,N,01509.68994,E,1,08,12.2,23549.7,M,178.0,M,,*66,Conflict
00334,$GPGGA,103252.00,4916.80908,N,01509.68994,E,1,08,12.2,23549.7,M,178.0,M,,*66,Forbidden
00335,$GPGGA,103252.00,4916.80908,N,01509.68994,E,1,08,8.0,23549.7,M,20.8,M,,*6B,Forbidden
00336,$GPGGA,103252.00,4916.80908,N,01509.68994,E,1,08,8.0,23549.7,M,20.8,M,,*6B,Forbidden
00337,$GPGGA,103308.00,4916.77490,N,01509.67834,E,1,08,12.2,23671.6,M,178.6,M,,*67,Forbidden
00338,$GPGGA,103308.00,4916.77490,N,01509.67834,E,1,08,12.2,23671.6,M,178.6,M,,*67,Forbidden
00339,$GPGGA,103308.00,4916.77490,N,01509.67834,E,1,08,8.0,23671.6,M,20.1,M,,*65,Forbidden
00340,$GPGGA,103308.00,4916.77490,N,01509.67834,E,1,08,8.0,23671.6,M,20.1,M,,*65,Forbidden
00341,$GPGGA,103324.00,4916.75293,N,01509.66638,E,1,08,12.2,23809.8,M,178.5,M,,*61,Conflict
00342,$GPGGA,103324.00,4916.75293,N,01509.66638,E,1,08,12.2,23809.8,M,178.5,M,,*61,Forbidden
00343,$GPGGA,103324.00,4916.75293,N,01509.66638,E,1,08,8.0,23809.8,M,19.9,M,,*62,Forbidden
00344,$GPGGA,103324.00,4916.75293,N,01509.66638,E,1,08,8.0,23809.8,M,19.9,M,,*62,Forbidden
00345,$GPGGA,103341.00,4916.73584,N,01509.63098,E,1,08,12.2,23954.7,M,178.0,M,,*6F,Conflict
00346,$GPGGA,103341.00,4916.73584,N,01509.63098,E,1,08,12.2,23954.7,M,178.0,M,,*6F,Forbidden
00347,$GPGGA,103341.00,4916.73584,N,01509.63098,E,1,08,8.0,23954.7,M,19.9,M,,*69,Forbidden
00348,$GPGGA,103341.00,4916.73584,N,01509.63098,E,1,08,8.0,23954.7,M,19.9,M,,*69,Forbidden
00349,$GPGGA,103357.00,4916.74902,N,01509.63330,E,1,09,12.2,24073.3,M,178.6,M,,*64,Conflict
00350,$GPGGA,103357.00,4916.74902,N,01509.63330,E,1,09,12.2,24073.3,M,178.6,M,,*64,Forbidden
00351,$GPGGA,103357.00,4916.74902,N,01509.63330,E,1,09,8.0,24073.3,M,20.4,M,,*63,Forbidden
00352,$GPGGA,103357.00,4916.74902,N,01509.63330,E,1,09,8.0,24073.3,M,20.4,M,,*63,Forbidden
00353,$GPGGA,103413.00,4916.75684,N,01509.65247,E,1,09,12.2,24228.2,M,178.3,M,,*6C,Forbidden
00354,$GPGGA,103429.00,4916.74268,N,01509.67175,E,1,07,12.2,24354.1,M,178.1,M,,*67,Forbidden
00355,$GPGGA,103429.00,4916.74268,N,01509.67175,E,1,07,12.2,24354.1,M,178.1,M,,*67,Forbidden
00356,$GPGGA,103429.00,4916.74268,N,01509.67175,E,1,07,8.0,24354.1,M,19.9,M,,*60,Forbidden
00357,$GPGGA,103429.00,4916.74268,N,01509.67175,E,1,07,8.0,24354.1,M,19.9,M,,*60,Forbidden
00358,$GPGGA,103445.00,4916.73047,N,01509.72375,E,1,07,12.2,24479.3,M,177.8,M,,*6F,Forbidden
00359,$GPGGA,103445.00,4916.73047,N,01509.72375,E,1,07,12.2,24479.3,M,177.8,M,,*6F,Forbidden
00360,$GPGGA,103445.00,4916.73047,N,01509.72375,E,1,07,8.0,24479.3,M,19.7,M,,*60,Forbidden
00361,$GPGGA,103502.00,4916.70850,N,01509.79077,E,1,08,12.2,24603.0,M,178.3,M,,*6D,Forbidden
00362,$GPGGA,103502.00,4916.70850,N,01509.79077,E,1,08,12.2,24603.0,M,178.3,M,,*6D,Forbidden
00363,$GPGGA,103502.00,4916.70850,N,01509.79077,E,1,08,8.0,24603.0,M,19.6,M,,*67,Forbidden
00364,$GPGGA,103502.00,4916.70850,N,01509.79077,E,1,08,8.0,24603.0,M,19.6,M,,*67,Forbidden
00365,$GPGGA,103518.00,4916.69531,N,01509.87891,E,1,09,12.2,24534.9,M,177.8,M,,*6E,Forbidden
00366,$GPGGA,103518.00,4916.69531,N,01509.87891,E,1,09,12.2,24534.9,M,177.8,M,,*6E,Forbidden
00367,$GPGGA,103518.00,4916.69531,N,01509.87891,E,1,09,8.0,24534.9,M,19.1,M,,*67,Forbidden
00368,$GPGGA,103518.00,4916.69531,N,01509.87891,E,1,09,8.0,24534.9,M,19.1,M,,*67,Forbidden
00369,$GPGGA,103534.00,4916.63525,N,01510.00098,E,1,08,12.2,24644.7,M,178.1,M,,*64,Forbidden
00370,$GPGGA,103534.00,4916.63525,N,01510.00098,E,1,08,12.2,24644.7,M,178.1,M,,*64,Forbidden
00371,$GPGGA,103534.00,4916.63525,N,01510.00098,E,1,08,8.0,24644.7,M,20.4,M,,*64,Forbidden
00372,$GPGGA,103534.00,4916.63525,N,01510.00098,E,1,08,8.0,24644.7,M,20.4,M,,*64,Forbidden
00373,$GPGGA,103550.00,4916.60645,N,01510.05298,E,1,07,12.2,24795.4,M,178.3,M,,*64,Forbidden
00374,$GPGGA,103550.00,4916.60645,N,01510.05298,E,1,07,8.0,24795.4,M,18.4,M,,*6D,Forbidden
00375,$GPGGA,103550.00,4916.60645,N,01510.05298,E,1,07,8.0,24795.4,M,18.4,M,,*6D,Forbidden
00376,$GPGGA,103607.00,4916.58691,N,01510.11938,E,1,08,12.2,25088.9,M,177.4,M,,*63,Forbidden
00377,$GPGGA,103607.00,4916.58691,N,01510.11938,E,1,08,8.0,25088.9,M,19.6,M,,*61,Forbidden
00378,$GPGGA,103607.00,4916.58691,N,01510.11938,E,1,08,8.0,25088.9,M,19.6,M,,*61,Forbidden
00379,$GPGGA,103623.00,4916.60938,N,01510.18762,E,1,07,12.2,25245.7,M,177.6,M,,*6A,Forbidden
00380,$GPGGA,103623.00,4916.60938,N,01510.18762,E,1,07,12.2,25245.7,M,177.6,M,,*6A,Forbidden
00381,$GPGGA,103623.00,4916.60938,N,01510.18762,E,1,07,8.0,25245.7,M,19.4,M,,*68,Forbidden
00382,$GPGGA,103623.00,4916.60938,N,01510.18762,E,1,07,8.0,25245.7,M,19.4,M,,*68,Forbidden
00383,$GPGGA,103639.00,4916.60400,N,01510.27258,E,1,08,12.2,25393.5,M,178.1,M,,*68,Forbidden
00384,$GPGGA,103639.00,4916.60400,N,01510.27258,E,1,08,8.0,25393.5,M,21.1,M,,*6C,Forbidden
00385,$GPGGA,103639.00,4916.60400,N,01510.27258,E,1,08,8.0,25393.5,M,21.1,M,,*6C,Forbidden
00386,$GPGGA,103744.00,4916.43164,N,01510.56396,E,1,08,12.2,25983.3,M,178.1,M,,*6D,Conflict
00387,$GPGGA,103744.00,4916.43164,N,01510.56396,E,1,08,12.2,25983.3,M,178.1,M,,*6D,Forbidden
00388,$GPGGA,103744.00,4916.43164,N,01510.56396,E,1,08,8.0,25983.3,M,18.5,M,,*67,Forbidden
00389,$GPGGA,103744.00,4916.43164,N,01510.56396,E,1,08,8.0,25983.3,M,18.5,M,,*67,Forbidden
00390,$GPGGA,103800.00,4916.35254,N,01510.61328,E,1,06,12.2,26090.4,M,178.0,M,,*62,Forbidden
00391,$GPGGA,103800.00,4916.35254,N,01510.61328,E,1,06,12.2,26090.4,M,178.0,M,,*62,Forbidden
00392,$GPGGA,103800.00,4916.35254,N,01510.61328,E,1,06,8.0,26090.4,M,19.2,M,,*6F,Forbidden
00393,$GPGGA,103800.00,4916.35254,N,01510.61328,E,1,06,8.0,26090.4,M,19.2,M,,*6F,Forbidden
00394,$GPGGA,103816.00,4916.26904,N,01510.60681,E,1,07,12.2,26226.4,M,177.3,M,,*6C,Conflict
00395,$GPGGA,103816.00,4916.26904,N,01510.60681,E,1,07,12.2,26226.4,M,177.3,M,,*6C,Forbidden
00396,$GPGGA,103816.00,4916.26904,N,01510.60681,E,1,07,8.0,26226.4,M,19.2,M,,*6D,Forbidden
00397,$GPGGA,103816.00,4916.26904,N,01510.60681,E,1,07,8.0,26226.4,M,19.2,M,,*6D,Forbidden
00398,$GPGGA,103832.00,4916.26172,N,01510.61560,E,1,08,12.2,26334.6,M,177.1,M,,*63,Forbidden
00399,$GPGGA,103832.00,4916.26172,N,01510.61560,E,1,08,12.2,26334.6,M,177.1,M,,*63,Forbidden
00400,$GPGGA,103832.00,4916.26172,N,01510.61560,E,1,08,7.9,26334.6,M,18.2,M,,*67,Forbidden
00401,$GPGGA,103832.00,4916.26172,N,01510.61560,E,1,08,7.9,26334.6,M,18.2,M,,*67,Forbidden
00402,$GPGGA,103849.00,4916.24756,N,01510.60400,E,1,07,12.2,26500.5,M,177.8,M,,*6F,Conflict
00403,$GPGGA,103849.00,4916.24756,N,01510.60400,E,1,07,12.2,26500.5,M,177.8,M,,*6F,Forbidden
00404,$GPGGA,103849.00,4916.24756,N,01510.60400,E,1,07,8.0,26500.5,M,18.7,M,,*61,Forbidden
00405,$GPGGA,103849.00,4916.24756,N,01510.60400,E,1,07,8.0,26500.5,M,18.7,M,,*61,Forbidden
00406,$GPGGA,103905.00,4916.24316,N,01510.54944,E,1,06,12.2,26629.7,M,177.8,M,,*67,Conflict
00407,$GPGGA,0000 0.00,       nan,N,       nan,E,1,071,189.7,-8142975.5,M,6824.8,M,,*51,Created
00408,$GPGGA,103921.00,4916.23633,N,01510.55164,E,1,08,12.2,26594.0,M,177.4,M,,*6F,Forbidden
00409,$GPGGA,103921.00,4916.23633,N,01510.55164,E,1,08,8.0,26594.0,M,18.9,M,,*63,Forbidden
00410,$GPGGA,103921.00,4916.23633,N,01510.55164,E,1,08,8.0,26594.0,M,18.9,M,,*63,Forbidden
00411,$GPGGA,103937.00,4916.25195,N,01510.50610,E,1,05,12.2,26774.9,M,177.8,M,,*60,Forbidden
00412,$GPGGA,103937.00,4916.25195,N,01510.50610,E,1,05,12.2,26774.9,M,177.8,M,,*60,Forbidden
00413,$GPGGA,103937.00,4916.25195,N,01510.50610,E,1,05,8.0,26774.9,M,19.2,M,,*6A,Forbidden
00414,$GPGGA,103937.00,4916.25195,N,01510.50610,E,1,05,8.0,26774.9,M,19.2,M,,*6A,Forbidden
00415,$GPGGA,103954.00,4916.22266,N,01510.52039,E,1,09,12.2,26996.8,M,178.0,M,,*6A,Created
00416,$GPGGA,103954.00,4916.22266,N,01510.52039,E,1,09,12.2,26996.8,M,178.0,M,,*6A,Forbidden
00417,$GPGGA,103954.00,4916.22266,N,01510.52039,E,1,09,8.0,26996.8,M,18.7,M,,*63,Forbidden
00418,$GPGGA,103954.00,4916.22266,N,01510.52039,E,1,09,8.0,26996.8,M,18.7,M,,*63,Forbidden
00419,$GPGGA,104010.00,4916.16748,N,01510.53955,E,1,09,12.2,27124.9,M,177.4,M,,*62,Conflict
00420,$GPGGA,104010.00,4916.16748,N,01510.53955,E,1,09,12.2,27124.9,M,177.4,M,,*62,Forbidden
00421,$GPGGA,104010.00,4916.16748,N,01510.53955,E,1,09,8.0,27124.9,M,20.1,M,,*6D,Forbidden
00422,$GPGGA,104026.00,4916.12354,N,01510.52014,E,1,07,12.2,27254.7,M,177.4,M,,*63,Conflict
00423,$GPGGA,104026.00,4916.12354,N,01510.52014,E,1,07,8.0,27254.7,M,18.7,M,,*61,Forbidden
00424,$GPGGA,104026.00,4916.12354,N,01510.52014,E,1,07,8.0,27254.7,M,18.7,M,,*61,Forbidden
00425,$GPGGA,104042.00,4916.06592,N,01510.52429,E,1,08,12.2,27433.3,M,177.4,M,,*6E,Forbidden
00426,$GPGGA,104042.00,4916.06592,N,01510.52429,E,1,08,12.2,27433.3,M,177.4,M,,*6E,Forbidden
00427,$GPGGA,104042.00,4916.06592,N,01510.52429,E,1,08,8.0,27433.3,M,18.5,M,,*6E,Forbidden
00428,$GPGGA,104042.00,4916.06592,N,01510.52429,E,1,08,8.0,27433.3,M,18.5,M,,*6E,Forbidden
00429,$GPGGA,104058.00,4916.07568,N,01510.53931,E,1,07,12.2,27573.0,M,178.5,M,,*63,Forbidden
00430,$GPGGA,104058.00,4916.07568,N,01510.53931,E,1,07,12.2,27573.0,M,178.5,M,,*63,Forbidden
00431,$GPGGA,104058.00,4916.07568,N,01510.53931,E,1,07,8.0,27573.0,M,18.9,M,,*61,Forbidden
00432,$GPGGA,104058.00,4916.07568,N,01510.53931,E,1,07,8.0,27573.0,M,18.9,M,,*61,Forbidden
00433,$GPGGA,0000-0.00,-206294288.00000,N,   0.00000,E,1,071,188.3,-14254156.0,M,6773.9,M,,*64,Created
00434,$GPGGA,104131.00,4916.12109,N,01510.53223,E,1,06,7.9,27759.5,M,18.2,M,,*63,Forbidden
00435,$GPGGA,104131.00,4916.12109,N,01510.53223,E,1,06,7.9,27759.5,M,18.2,M,,*63,Forbidden
00436,$GPGGA,104147.00,4916.16211,N,01510.52356,E,1,08,12.2,27961.0,M,178.1,M,,*6B,Forbidden
00437,$GPGGA,104147.00,4916.16211,N,01510.52356,E,1,08,12.2,27961.0,M,178.1,M,,*6B,Forbidden
00438,$GPGGA,104147.00,4916.16211,N,01510.52356,E,1,08,7.9,27961.0,M,17.9,M,,*64,Forbidden
00439,$GPGGA,104147.00,4916.16211,N,01510.52356,E,1,08,7.9,27961.0,M,17.9,M,,*64,Forbidden
00440,$GPGGA,104203.00,4916.26025,N,01510.44238,E,1,06,12.2,27943.6,M,177.8,M,,*6E,Forbidden
00441,$GPGGA,104203.00,4916.26025,N,01510.44238,E,1,06,12.2,27943.6,M,177.8,M,,*6E,Forbidden
00442,$GPGGA,104203.00,4916.26025,N,01510.44238,E,1,06,8.0,27943.6,M,18.4,M,,*63,Forbidden
00443,$GPGGA,104203.00,4916.26025,N,01510.44238,E,1,06,8.0,27943.6,M,18.4,M,,*63,Forbidden
00444,$GPGGA,104219.00,4916.18164,N,01510.62024,E,1,09,12.2,28271.9,M,177.4,M,,*6E,Forbidden
00445,$GPGGA,104219.00,4916.18164,N,01510.62024,E,1,09,8.0,28271.9,M,19.2,M,,*68,Forbidden
00446,$GPGGA,104219.00,4916.18164,N,01510.62024,E,1,09,8.0,28271.9,M,19.2,M,,*68,Forbidden
00447,$GPGGA,104236.00,4916.24756,N,01510.68945,E,1,06,12.2,28405.0,M,177.8,M,,*60,Conflict
00448,$GPGGA,104236.00,4916.24756,N,01510.68945,E,1,06,12.2,28405.0,M,177.8,M,,*60,Forbidden
00449,$GPGGA,104236.00,4916.24756,N,01510.68945,E,1,06,8.0,28405.0,M,19.7,M,,*6F,Forbidden
00450,$GPGGA,104252.00,4916.24658,N,01510.78845,E,1,08,12.2,28546.7,M,177.3,M,,*69,Forbidden
00451,$GPGGA,104252.00,4916.24658,N,01510.78845,E,1,08,12.2,28546.7,M,177.3,M,,*69,Forbidden
00452,$GPGGA,104252.00,4916.24658,N,01510.78845,E,1,08,8.0,28546.7,M,19.4,M,,*6E,Forbidden
00453,$GPGGA,104252.00,4916.24658,N,01510.78845,E,1,08,8.0,28546.7,M,19.4,M,,*6E,Forbidden
00454,$GPGGA,104308.00,4916.25977,N,01510.87085,E,1,07,12.2,28532.8,M,177.8,M,,*68,Conflict
00455,$GPGGA,104308.00,4916.25977,N,01510.87085,E,1,07,12.2,28532.8,M,177.8,M,,*68,Forbidden
00456,$GPGGA,104308.00,4916.25977,N,01510.87085,E,1,07,8.0,28532.8,M,19.4,M,,*64,Forbidden
00457,$GPGGA,104308.00,4916.25977,N,01510.87085,E,1,07,8.0,28532.8,M,19.4,M,,*64,Forbidden
00458,$GPGGA,104324.00,4916.26953,N,01510.93933,E,1,05,12.2,28509.9,M,177.3,M,,*62,Conflict
00459,$GPGGA,104324.00,4916.26953,N,01510.93933,E,1,05,12.2,28509.9,M,177.3,M,,*62,Forbidden
00460,$GPGGA,104324.00,4916.26953,N,01510.93933,E,1,05,8.0,28509.9,M,18.5,M,,*65,Forbidden
00461,$GPGGA,104324.00,4916.26953,N,01510.93933,E,1,05,8.0,28509.9,M,18.5,M,,*65,Forbidden
00462,$GPGGA,104341.00,4916.29883,N,01510.91492,E,1,06,12.2,28812.8,M,177.3,M,,*63,Forbidden
00463,$GPGGA,104341.00,4916.29883,N,01510.91492,E,1,06,12.2,28812.8,M,177.3,M,,*63,Forbidden
00464,$GPGGA,104341.00,4916.29883,N,01510.91492,E,1,06,8.0,28812.8,M,18.7,M,,*66,Forbidden
00465,$GPGGA,104341.00,4916.29883,N,01510.91492,E,1,06,8.0,28812.8,M,18.7,M,,*66,Forbidden
00466,$GPGGA,104357.00,4916.31689,N,01510.97229,E,1,08,12.2,29094.8,M,177.6,M,,*65,Conflict
00467,$GPGGA,104357.00,4916.31689,N,01510.97229,E,1,08,12.2,29094.8,M,177.6,M,,*65,Forbidden
00468,$GPGGA,104357.00,4916.31689,N,01510.97229,E,1,08,8.0,29094.8,M,18.4,M,,*66,Forbidden
00469,$GPGGA,104357.00,4916.31689,N,01510.97229,E,1,08,8.0,29094.8,M,18.4,M,,*66,Forbidden
00470,$GPGGA,104413.00,4916.35547,N,01511.07617,E,1,08,12.2,29226.3,M,177.6,M,,*66,Forbidden
00471,$GPGGA,104413.00,4916.35547,N,01511.07617,E,1,08,12.2,29226.3,M,177.6,M,,*66,Forbidden
00472,$GPGGA,104413.00,4916.35547,N,01511.07617,E,1,08,7.9,29226.3,M,18.0,M,,*67,Forbidden
00473,$GPGGA,104413.00,4916.35547,N,01511.07617,E,1,08,7.9,29226.3,M,18.0,M,,*67,Forbidden
00474,$GPGGA,104429.00,4916.34131,N,01511.22058,E,1,09,12.2,29425.7,M,177.4,M,,*63,Forbidden
00475,$GPGGA,104429.00,4916.34131,N,01511.22058,E,1,09,12.2,29425.7,M,177.4,M,,*63,Forbidden
00476,$GPGGA,104429.00,4916.34131,N,01511.22058,E,1,09,8.0,29425.7,M,18.4,M,,*62,Forbidden
00477,$GPGGA,104445.00,4916.36719,N,01511.32581,E,1,05,12.2,29577.8,M,176.8,M,,*6F,Forbidden
00478,$GPGGA,104445.00,4916.36719,N,01511.32581,E,1,05,12.2,29577.8,M,176.8,M,,*6F,Forbidden
00479,$GPGGA,104445.00,4916.36719,N,01511.32581,E,1,05,7.9,29577.8,M,17.3,M,,*6D,Forbidden
00480,$GPGGA,104445.00,4916.36719,N,01511.32581,E,1,05,7.9,29577.8,M,17.3,M,,*6D,Forbidden
00481,$GPGGA,104502.00,4916.42627,N,01511.42554,E,1,05,12.2,29617.4,M,177.1,M,,*6C,Forbidden
00482,$GPGGA,104502.00,4916.42627,N,01511.42554,E,1,05,12.2,29617.4,M,177.1,M,,*6C,Forbidden
00483,$GPGGA,104502.00,4916.42627,N,01511.42554,E,1,05,8.0,29617.4,M,18.9,M,,*65,Forbidden
00484,$GPGGA,104502.00,4916.42627,N,01511.42554,E,1,05,8.0,29617.4,M,18.9,M,,*65,Forbidden
00485,$GPGGA,104518.00,4916.32666,N,01511.52942,E,1,06,12.2,29911.3,M,177.1,M,,*62,Created
00486,$GPGGA,104518.00,4916.32666,N,01511.52942,E,1,06,12.2,29911.3,M,177.1,M,,*62,Forbidden
00487,$GPGGA,104534.00,4916.32617,N,01511.61218,E,1,08,12.2,30060.1,M,176.9,M,,*6C,Conflict
00488,$GPGGA,104534.00,4916.32617,N,01511.61218,E,1,08,12.2,30060.1,M,176.9,M,,*6C,Forbidden
00489,$GPGGA,104534.00,4916.32617,N,01511.61218,E,1,08,7.9,30060.1,M,18.0,M,,*63,Forbidden
00490,$GPGGA,104534.00,4916.32617,N,01511.61218,E,1,08,7.9,30060.1,M,18.0,M,,*63,Forbidden
00491,$GPGGA,104550.00,4916.33887,N,01511.73096,E,1,08,12.2,30170.1,M,177.1,M,,*66,Forbidden
00492,$GPGGA,104550.00,4916.33887,N,01511.73096,E,1,08,12.2,30170.1,M,177.1,M,,*66,Forbidden
00493,$GPGGA,0000 0.00,       nan,N,0       nan,E,1,00,0.0,0.0,M,-278.7,M,,*6B,Created
00494,$GPGGA,104639.00,4916.41064,N,01512.09521,E,1,07,8.0,30694.4,M,18.5,M,,*6F,Forbidden
00495,$GPGGA,104639.00,4916.41064,N,01512.09521,E,1,07,8.0,30694.4,M,18.5,M,,*6F,Forbidden
00496,$GPGGA,104655.00,4916.42773,N,01512.24048,E,1,08,12.2,30831.4,M,176.8,M,,*61,Forbidden
00497,$GPGGA,104655.00,4916.42773,N,01512.24048,E,1,08,12.2,30831.4,M,176.8,M,,*61,Forbidden
00498,$GPGGA,104655.00,4916.42773,N,01512.24048,E,1,08,8.0,30831.4,M,18.7,M,,*6E,Forbidden
00499,$GPGGA,104655.00,4916.42773,N,01512.24048,E,1,08,8.0,30831.4,M,18.7,M,,*6E,Forbidden
00500,$GPGGA,104711.00,4916.43359,N,01512.36133,E,1,07,8.0,30962.9,M,18.9,M,,*67,Forbidden
00501,$GPGGA,104711.00,4916.43359,N,01512.36133,E,1,07,8.0,30962.9,M,18.9,M,,*67,Forbidden
00502,$GPGGA,104727.00,4916.41260,N,01512.43994,E,1,06,12.2,31115.9,M,176.9,M,,*64,Forbidden
00503,$GPGGA,104727.00,4916.41260,N,01512.43994,E,1,06,12.2,31115.9,M,176.9,M,,*64,Forbidden
00504,$GPGGA,104727.00,4916.41260,N,01512.43994,E,1,06,7.9,31115.9,M,16.8,M,,*6D,Forbidden
00505,$GPGGA,104727.00,4916.41260,N,01512.43994,E,1,06,7.9,31115.9,M,16.8,M,,*6D,Forbidden
00506,$GPGGA,104744.00,4916.42285,N,01512.60071,E,1,07,12.2,31272.8,M,176.8,M,,*69,Forbidden
00507,$GPGGA,104744.00,4916.42285,N,01512.60071,E,1,07,12.2,31272.8,M,176.8,M,,*69,Forbidden
00508,$GPGGA,104744.00,4916.42285,N,01512.60071,E,1,07,7.9,31272.8,M,17.7,M,,*6F,Forbidden
00509,$GPGGA,104744.00,4916.42285,N,01512.60071,E,1,07,7.9,31272.8,M,17.7,M,,*6F,Forbidden
00510,$GPGGA,104800.00,4916.39941,N,01512.73718,E,1,09,12.2,31400.4,M,177.6,M,,*6D,Forbidden
00511,$GPGGA,104800.00,4916.39941,N,01512.73718,E,1,09,12.2,31400.4,M,177.6,M,,*6D,Forbidden
00512,$GPGGA,104800.00,4916.39941,N,01512.73718,E,1,09,7.9,31400.4,M,18.0,M,,*6C,Forbidden
00513,$GPGGA,104800.00,4916.39941,N,01512.73718,E,1,09,7.9,31400.4,M,18.0,M,,*6C,Forbidden
00514,$GPGGA,104816.00,4916.39941,N,01512.73718,E,1,09,12.2,31400.4,M,177.1,M,,*6D,Forbidden
00515,$GPGGA,104816.00,4916.39941,N,01512.73718,E,1,09,12.2,31400.4,M,177.1,M,,*6D,Forbidden
00516,$GPGGA,104816.00,4916.39941,N,01512.73718,E,1,09,7.9,31400.4,M,18.0,M,,*6B,Forbidden
00517,$GPGGA,104816.00,4916.39941,N,01512.73718,E,1,09,7.9,31400.4,M,18.0,M,,*6B,Forbidden
00518,$GPGGA,104832.00,4916.39941,N,01512.73718,E,1,09,12.2,31400.4,M,176.8,M,,*63,Forbidden
00519,$GPGGA,104832.00,4916.39941,N,01512.73718,E,1,09,12.2,31400.4,M,176.8,M,,*63,Forbidden
00520,$GPGGA,104832.00,4916.39941,N,01512.73718,E,1,09,7.9,31400.4,M,18.2,M,,*6F,Forbidden
00521,$GPGGA,104832.00,4916.39941,N,01512.73718,E,1,09,7.9,31400.4,M,18.2,M,,*6F,Forbidden
00522,$GPGGA,104849.00,4916.39941,N,01512.73718,E,1,09,12.2,31400.4,M,176.8,M,,*6F,Forbidden
00523,$GPGGA,104849.00,4916.39941,N,01512.73718,E,1,09,7.9,31400.4,M,17.7,M,,*69,Forbidden
00524,$GPGGA,104905.00,4916.39941,N,01512.73718,E,1,09,12.2,31400.4,M,176.8,M,,*66,Forbidden
00525,$GPGGA,104905.00,4916.39941,N,01512.73718,E,1,09,12.2,31400.4,M,176.8,M,,*66,Forbidden
00526,$GPGGA,104905.00,4916.39941,N,01512.73718,E,1,09,7.9,31400.4,M,18.2,M,,*6A,Forbidden
00527,$GPGGA,104905.00,4916.39941,N,01512.73718,E,1,09,7.9,31400.4,M,18.2,M,,*6A,Forbidden
00528,$GPGGA,104921.00,4916.39941,N,01512.73718,E,1,09,12.2,31400.4,M,176.9,M,,*61,Forbidden
00529,$GPGGA,104921.00,4916.39941,N,01512.73718,E,1,09,12.2,31400.4,M,176.9,M,,*61,Forbidden
00530,$GPGGA,104921.00,4916.39941,N,01512.73718,E,1,09,7.9,31400.4,M,18.0,M,,*6E,Forbidden
00531,$GPGGA,104937.00,4916.39941,N,01512.73718,E,1,09,7.9,31400.4,M,18.2,M,,*6B,Forbidden
00532,$GPGGA,104954.00,4916.39941,N,01512.73718,E,1,09,12.2,31400.4,M,176.9,M,,*63,Conflict
00533,$GPGGA,104954.00,4916.39941,N,01512.73718,E,1,09,12.2,31400.4,M,176.9,M,,*63,Forbidden
00534,$GPGGA,104954.00,4916.39941,N,01512.73718,E,1,09,8.0,31400.4,M,19.1,M,,*6A,Forbidden
00535,$GPGGA,104954.00,4916.39941,N,01512.73718,E,1,09,8.0,31400.4,M,19.1,M,,*6A,Forbidden
00536,$GPGGA,105010.00,4916.44482,N,01513.30212,E,1,07,8.0,26353.5,M,18.7,M,,*6C,Forbidden
00537,$GPGGA,105010.00,4916.44482,N,01513.30212,E,1,07,8.0,26353.5,M,18.7,M,,*6C,Forbidden
00538,$GPGGA,105026.00,4916.39111,N,01513.30774,E,1,08,12.2,25842.9,M,176.9,M,,*6C,Conflict
00539,$GPGGA,105026.00,4916.39111,N,01513.30774,E,1,08,12.2,25842.9,M,176.9,M,,*6C,Forbidden
00540,$GPGGA,105026.00,4916.39111,N,01513.30774,E,1,08,7.9,25842.9,M,18.0,M,,*63,Forbidden
00541,$GPGGA,105026.00,4916.39111,N,01513.30774,E,1,08,7.9,25842.9,M,18.0,M,,*63,Forbidden
00542,$GPGGA,105042.00,4916.34717,N,01513.37427,E,1,08,12.2,25356.8,M,177.3,M,,*65,Forbidden
00543,$GPGGA,105042.00,4916.34717,N,01513.37427,E,1,08,12.2,25356.8,M,177.3,M,,*65,Forbidden
00544,$GPGGA,105042.00,4916.34717,N,01513.37427,E,1,08,7.9,25356.8,M,17.7,M,,*69,Forbidden
00545,$GPGGA,105042.00,4916.34717,N,01513.37427,E,1,08,7.9,25356.8,M,17.7,M,,*69,Forbidden
00546,$GPGGA,105058.00,4916.33447,N,01513.43640,E,1,09,12.2,24876.9,M,176.4,M,,*61,Forbidden
00547,$GPGGA,105058.00,4916.33447,N,01513.43640,E,1,09,12.2,24876.9,M,176.4,M,,*61,Forbidden
00548,$GPGGA,105058.00,4916.33447,N,01513.43640,E,1,09,7.9,24876.9,M,17.9,M,,*65,Forbidden
00549,$GPGGA,105058.00,4916.33447,N,01513.43640,E,1,09,7.9,24876.9,M,17.9,M,,*65,Forbidden
00550,$GPGGA,105114.00,4916.29541,N,01513.49231,E,1,09,12.2,24416.3,M,176.4,M,,*6C,Created
00551,$GPGGA,105114.00,4916.29541,N,01513.49231,E,1,09,12.2,24416.3,M,176.4,M,,*6C,Forbidden
00552,$GPGGA,105114.00,4916.29541,N,01513.49231,E,1,09,8.0,24416.3,M,18.4,M,,*6C,Forbidden
00553,$GPGGA,105114.00,4916.29541,N,01513.49231,E,1,09,8.0,24416.3,M,18.4,M,,*6C,Forbidden
00554,$GPGGA,105131.00,4916.28955,N,01513.53271,E,1,08,12.2,23944.6,M,177.1,M,,*61,Forbidden
00555,$GPGGA,105131.00,4916.28955,N,01513.53271,E,1,08,7.9,23944.6,M,17.0,M,,*68,Forbidden
00556,$GPGGA,0000-0.00,232268431009223846920192.00000,N,0   0.00000,E,1,00,0.0,0.0,M,-279.4,M,,*7C,Created
00557,$GPGGA,105219.00,4916.17529,N,01513.56519,E,1,09,8.0,22676.2,M,18.7,M,,*62,Forbidden
00558,$GPGGA,105219.00,4916.17529,N,01513.56519,E,1,09,8.0,22676.2,M,18.7,M,,*62,Forbidden
00559,$GPGGA,105236.00,4916.13232,N,01513.57434,E,1,08,12.2,22256.7,M,176.9,M,,*65,Forbidden
00560,$GPGGA,105236.00,4916.13232,N,01513.57434,E,1,08,12.2,22256.7,M,176.9,M,,*65,Forbidden
00561,$GPGGA,105252.00,4916.06250,N,01513.57349,E,1,08,12.2,21862.0,M,176.4,M,,*6E,Forbidden
00562,$GPGGA,0000 0.00,   0.00000,N,2458508281182112710656.00000,E,1,071,187.2,-364904768.0,M,6733.3,M,,*4B,Created
00563,$GPGGA,105308.00,4915.97559,N,01513.63330,E,1,05,8.0,21525.6,M,18.5,M,,*68,Forbidden
00564,$GPGGA,105308.00,4915.97559,N,01513.63330,E,1,05,8.0,21525.6,M,18.5,M,,*68,Forbidden
00565,$GPGGA,0000 0.00,   0.00000,N,629378119982620853927936.00000,E,1,071,187.2,-381681984.0,M,6733.3,M,,*48,Created
00566,$GPGGA,105324.00,4915.97559,N,01513.63330,E,1,05,7.9,21525.6,M,17.2,M,,*68,Forbidden
00567,$GPGGA,105341.00,4915.97559,N,01513.63330,E,1,05,12.2,21525.6,M,177.3,M,,*62,Forbidden
00568,$GPGGA,105341.00,4915.97559,N,01513.63330,E,1,05,12.2,21525.6,M,177.3,M,,*62,Forbidden
00569,$GPGGA,105341.00,4915.97559,N,01513.63330,E,1,05,7.9,21525.6,M,18.2,M,,*64,Forbidden
00570,$GPGGA,105341.00,4915.97559,N,01513.63330,E,1,05,7.9,21525.6,M,18.2,M,,*64,Forbidden
00571,$GPGGA,105357.00,4915.97559,N,01513.63330,E,1,05,12.2,21525.6,M,176.8,M,,*6F,Forbidden
00572,$GPGGA,105357.00,4915.97559,N,01513.63330,E,1,05,12.2,21525.6,M,176.8,M,,*6F,Forbidden
00573,$GPGGA,105357.00,4915.97559,N,01513.63330,E,1,05,7.9,21525.6,M,17.3,M,,*6D,Forbidden
00574,$GPGGA,105357.00,4915.97559,N,01513.63330,E,1,05,7.9,21525.6,M,17.3,M,,*6D,Forbidden
00575,$GPGGA,105413.00,4915.97559,N,01513.63330,E,1,05,12.2,21525.6,M,177.3,M,,*62,Forbidden
00576,$GPGGA,105413.00,4915.97559,N,01513.63330,E,1,05,12.2,21525.6,M,177.3,M,,*62,Forbidden
00577,$GPGGA,105413.00,4915.97559,N,01513.63330,E,1,05,7.9,21525.6,M,17.0,M,,*69,Forbidden
00578,$GPGGA,105413.00,4915.97559,N,01513.63330,E,1,05,7.9,21525.6,M,17.0,M,,*69,Forbidden
00579,$GPGGA,105429.00,4915.97559,N,01513.63330,E,1,05,12.2,21525.6,M,177.4,M,,*6C,Forbidden
00580,$GPGGA,105429.00,4915.97559,N,01513.63330,E,1,05,12.2,21525.6,M,177.4,M,,*6C,Forbidden
00581,$GPGGA,105429.00,4915.97559,N,01513.63330,E,1,05,7.9,21525.6,M,17.3,M,,*63,Forbidden
00582,$GPGGA,105429.00,4915.97559,N,01513.63330,E,1,05,7.9,21525.6,M,17.3,M,,*63,Forbidden
00583,$GPGGA,105445.00,4915.97559,N,01513.63330,E,1,05,12.2,21525.6,M,176.4,M,,*67,Forbidden
00584,$GPGGA,105445.00,4915.97559,N,01513.63330,E,1,05,7.9,21525.6,M,18.0,M,,*65,Forbidden
00585,$GPGGA,0000 0.00,       nan,N,       nan,E,1,071,187.2,-633356224.0,M,6733.3,M,,*5B,Created
00586,$GPGGA,105518.00,4915.97559,N,01513.63330,E,1,05,7.9,21525.6,M,17.7,M,,*64,Forbidden
00587,$GPGGA,105518.00,4915.97559,N,01513.63330,E,1,05,7.9,21525.6,M,17.7,M,,*64,Forbidden
00588,$GPGGA,000790.40,   0.00000,N,   0.00000,E,1,071,187.2,-700455040.0,M,6733.3,M,,*44,Created
00589,$GPGGA,105623.00,4915.97559,N,01513.63330,E,1,05,12.2,21525.6,M,176.4,M,,*65,Forbidden
00590,$GPGGA,105623.00,4915.97559,N,01513.63330,E,1,05,7.9,21525.6,M,17.9,M,,*61,Forbidden
00591,$GPGGA,105623.00,4915.97559,N,01513.63330,E,1,05,7.9,21525.6,M,17.9,M,,*61,Forbidden
00592,$GPGGA,105639.00,4915.97559,N,01513.63330,E,1,05,12.2,21525.6,M,177.1,M,,*6A,Forbidden
00593,$GPGGA,105639.00,4915.97559,N,01513.63330,E,1,05,12.2,21525.6,M,177.1,M,,*6A,Forbidden
00594,$GPGGA,105639.00,4915.97559,N,01513.63330,E,1,05,7.9,21525.6,M,17.3,M,,*60,Forbidden
00595,$GPGGA,105655.00,4915.97559,N,01513.63330,E,1,05,12.2,21525.6,M,176.2,M,,*62,Forbidden
00596,$GPGGA,105655.00,4915.97559,N,01513.63330,E,1,05,12.2,21525.6,M,176.2,M,,*62,Forbidden
00597,$GPGGA,105655.00,4915.97559,N,01513.63330,E,1,05,7.9,21525.6,M,16.8,M,,*60,Forbidden
00598,$GPGGA,105655.00,4915.97559,N,01513.63330,E,1,05,7.9,21525.6,M,16.8,M,,*60,Forbidden
00599,$GPGGA,105711.00,4915.97559,N,01513.63330,E,1,05,12.2,21525.6,M,177.1,M,,*61,Forbidden
00600,$GPGGA,105711.00,4915.97559,N,01513.63330,E,1,05,12.2,21525.6,M,177.1,M,,*61,Forbidden
00601,$GPGGA,105711.00,4915.97559,N,01513.63330,E,1,05,7.9,21525.6,M,18.0,M,,*67,Forbidden
00602,$GPGGA,105711.00,4915.97559,N,01513.63330,E,1,05,7.9,21525.6,M,18.0,M,,*67,Forbidden
00603,$GPGGA,105728.00,4915.97559,N,01513.63330,E,1,05,12.2,21525.6,M,176.2,M,,*69,Forbidden
00604,$GPGGA,105728.00,4915.97559,N,01513.63330,E,1,05,7.9,21525.6,M,16.8,M,,*6B,Forbidden
00605,$GPGGA,0000 0.00,   0.00000,N,-34937504.00000,E,1,071,187.3,-1140851456.0,M,6734.7,M,,*52,Created
00606,$GPGGA,000790.40,   0.00000,N,   0.00000,E,1,071,187.2,-1509974656.0,M,6733.3,M,,*71,Created
00607,$GPGGA,105832.00,4915.97559,N,01513.63330,E,1,05,7.9,21525.6,M,18.0,M,,*69,Forbidden
00608,$GPGGA,0000 0.00,   0.00000,N,614627070295528177664.00000,E,1,071,187.2,-1816134912.0,M,6733.3,M,,*48,Created
00609,$GPGGA,105905.00,4915.97559,N,01513.63330,E,1,05,7.9,21525.6,M,17.7,M,,*64,Forbidden
00610,$GPGGA,105921.00,4915.97559,N,01513.63330,E,1,05,12.2,21525.6,M,176.2,M,,*6E,Conflict
00611,$GPGGA,105921.00,4915.97559,N,01513.63330,E,1,05,12.2,21525.6,M,176.2,M,,*6E,Forbidden
00612,$GPGGA,105921.00,4915.97559,N,01513.63330,E,1,05,7.9,21525.6,M,16.8,M,,*6C,Forbidden
00613,$GPGGA,105921.00,4915.97559,N,01513.63330,E,1,05,7.9,21525.6,M,16.8,M,,*6C,Forbidden
00614,$GPGGA,105937.00,4915.97559,N,01513.63330,E,1,05,12.2,21525.6,M,176.1,M,,*6A,Conflict
00615,$GPGGA,105937.00,4915.97559,N,01513.63330,E,1,05,12.2,21525.6,M,176.1,M,,*6A,Forbidden
00616,$GPGGA,105937.00,4915.97559,N,01513.63330,E,1,05,7.9,21525.6,M,18.0,M,,*6D,Forbidden
00617,$GPGGA,105937.00,4915.97559,N,01513.63330,E,1,05,7.9,21525.6,M,18.0,M,,*6D,Forbidden
00618,$GPGGA,105953.00,4915.97559,N,01513.63330,E,1,05,12.2,21525.6,M,176.6,M,,*6F,Conflict
00619,$GPGGA,105953.00,4915.97559,N,01513.63330,E,1,05,12.2,21525.6,M,176.6,M,,*6F,Forbidden
00620,$GPGGA,105953.00,4915.97559,N,01513.63330,E,1,05,7.9,21525.6,M,17.2,M,,*62,Forbidden
00621,$GPGGA,105953.00,4915.97559,N,01513.63330,E,1,05,7.9,21525.6,M,17.2,M,,*62,Forbidden
00622,$GPGGA,110010.00,4915.97559,N,01513.63330,E,1,05,12.2,21525.6,M,176.6,M,,*65,Forbidden
00623,$GPGGA,110010.00,4915.97559,N,01513.63330,E,1,05,12.2,21525.6,M,176.6,M,,*65,Forbidden
00624,$GPGGA,110010.00,4915.97559,N,01513.63330,E,1,05,7.9,21525.6,M,17.0,M,,*6A,Forbidden
00625,$GPGGA,110026.00,4915.97559,N,01513.63330,E,1,05,12.2,21525.6,M,175.9,M,,*6C,Conflict
00626,$GPGGA,110026.00,4915.97559,N,01513.63330,E,1,05,12.2,21525.6,M,175.9,M,,*6C,Forbidden
00627,$GPGGA,110026.00,4915.97559,N,01513.63330,E,1,05,7.9,21525.6,M,16.0,M,,*6E,Forbidden
00628,$GPGGA,110026.00,4915.97559,N,01513.63330,E,1,05,7.9,21525.6,M,16.0,M,,*6E,Forbidden
00629,$GPGGA,110042.00,4915.97559,N,01513.63330,E,1,05,12.2,21525.6,M,176.9,M,,*6D,Forbidden
00630,$GPGGA,110042.00,4915.97559,N,01513.63330,E,1,05,12.2,21525.6,M,176.9,M,,*6D,Forbidden
00631,$GPGGA,110042.00,4915.97559,N,01513.63330,E,1,05,8.0,21525.6,M,19.2,M,,*67,Forbidden
00632,$GPGGA,110042.00,4915.97559,N,01513.63330,E,1,05,8.0,21525.6,M,19.2,M,,*67,Forbidden
00633,$GPGGA,110058.00,4915.97559,N,01513.63330,E,1,05,12.2,21525.6,M,176.8,M,,*67,Forbidden
00634,$GPGGA,110058.00,4915.97559,N,01513.63330,E,1,05,12.2,21525.6,M,176.8,M,,*67,Forbidden
00635,$GPGGA,110058.00,4915.97559,N,01513.63330,E,1,05,7.9,21525.6,M,16.8,M,,*6F,Forbidden
00636,$GPGGA,110058.00,4915.97559,N,01513.63330,E,1,05,7.9,21525.6,M,16.8,M,,*6F,Forbidden
00637,$GPGGA,110114.00,4915.97559,N,01513.63330,E,1,05,12.2,21525.6,M,175.9,M,,*6C,Forbidden
00638,$GPGGA,110114.00,4915.97559,N,01513.63330,E,1,05,12.2,21525.6,M,175.9,M,,*6C,Forbidden
00639,$GPGGA,110114.00,4915.97559,N,01513.63330,E,1,05,7.9,21525.6,M,17.7,M,,*68,Forbidden
00640,$GPGGA,110114.00,4915.97559,N,01513.63330,E,1,05,7.9,21525.6,M,17.7,M,,*68,Forbidden
00641,$GPGGA,110131.00,4915.97559,N,01513.63330,E,1,05,12.2,21525.6,M,176.6,M,,*67,Forbidden
00642,$GPGGA,110131.00,4915.97559,N,01513.63330,E,1,05,12.2,21525.6,M,176.6,M,,*67,Forbidden
00643,$GPGGA,110131.00,4915.97559,N,01513.63330,E,1,05,7.9,21525.6,M,16.1,M,,*68,Forbidden
00644,$GPGGA,110131.00,4915.97559,N,01513.63330,E,1,05,7.9,21525.6,M,16.1,M,,*68,Forbidden
00645,$GPGGA,110147.00,4915.97559,N,01513.63330,E,1,05,12.2,21525.6,M,176.4,M,,*64,Forbidden
00646,$GPGGA,110147.00,4915.97559,N,01513.63330,E,1,05,12.2,21525.6,M,176.4,M,,*64,Forbidden
