Entry_id,GPS_message_type,Time,Lat,Lat_dir,Lon,Lon_dir,GPS_equal,Num_sats,Horizontal_dil,Altitude,Altitude_units,Geo_sep,Geo_sep_units,Age_gps_data,Ref_station_id,Upload_status
00000,$GPGGA,163241.00,5006.98633,N,01427.66431,E,1,07,12.1,241.4,M,172.0,M,,*6F,Created
00001,$GPGGA,163241.00,5006.98633,N,01427.66431,E,1,07,8.1,241.4,M,23.0,M,,*61,Forbidden
00002,$GPGGA,163241.00,5006.98633,N,01427.66431,E,1,07,8.1,241.4,M,23.0,M,,*61,Forbidden
00003,$GPGGA,163252.00,5006.98535,N,01427.66357,E,1,07,12.0,244.3,M,171.6,M,,*69,Created
00004,$GPGGA,163252.00,5006.98535,N,01427.66357,E,1,07,12.0,244.3,M,171.6,M,,*69,Forbidden
00005,$GPGGA,163252.00,5006.98535,N,01427.66357,E,1,07,8.1,244.3,M,23.7,M,,*64,Forbidden
00006,$GPGGA,163252.00,5006.98535,N,01427.66357,E,1,07,8.1,244.3,M,23.7,M,,*64,Forbidden
00007,$GPGGA,163303.00,5006.98535,N,01427.66284,E,1,07,12.0,248.4,M,171.4,M,,*6A,Created
00008,$GPGGA,163303.00,5006.98535,N,01427.66284,E,1,07,12.0,248.4,M,171.4,M,,*6A,Forbidden
00009,$GPGGA,163303.00,5006.98535,N,01427.66284,E,1,07,8.1,248.4,M,23.9,M,,*6B,Forbidden
00010,$GPGGA,163303.00,5006.98535,N,01427.66284,E,1,07,8.1,248.4,M,23.9,M,,*6B,Forbidden
00011,$GPGGA,163315.00,5006.98730,N,01427.66504,E,1,07,12.0,252.9,M,171.1,M,,*66,Created
00012,$GPGGA,163315.00,5006.98730,N,01427.66504,E,1,07,12.0,252.9,M,171.1,M,,*66,Forbidden
00013,$GPGGA,163315.00,5006.98730,N,01427.66504,E,1,07,8.1,252.9,M,23.7,M,,*6C,Forbidden
00014,$GPGGA,163315.00,5006.98730,N,01427.66504,E,1,07,8.1,252.9,M,23.7,M,,*6C,Forbidden
00015,$GPGGA,163326.00,5006.98779,N,01427.66663,E,1,07,12.0,251.5,M,171.6,M,,*61,Created
00016,$GPGGA,163326.00,5006.98779,N,01427.66663,E,1,07,12.0,251.5,M,171.6,M,,*61,Forbidden
00017,$GPGGA,163326.00,5006.98779,N,01427.66663,E,1,07,8.1,251.5,M,23.9,M,,*62,Forbidden
00018,$GPGGA,163326.00,5006.98779,N,01427.66663,E,1,07,8.1,251.5,M,23.9,M,,*62,Forbidden
00019,$GPGGA,163337.00,5006.98828,N,01427.66589,E,1,07,12.0,252.8,M,170.9,M,,*6D,Created
00020,$GPGGA,163337.00,5006.98828,N,01427.66589,E,1,07,12.0,252.8,M,170.9,M,,*6D,Forbidden
00021,$GPGGA,163337.00,5006.98828,N,01427.66589,E,1,07,8.1,252.8,M,22.5,M,,*6D,Forbidden
00022,$GPGGA,163337.00,5006.98828,N,01427.66589,E,1,07,8.1,252.8,M,22.5,M,,*6D,Forbidden
00023,$GPGGA,163348.00,5006.98877,N,01427.66492,E,1,07,12.0,250.2,M,171.6,M,,*62,Created
00024,$GPGGA,163348.00,5006.98877,N,01427.66492,E,1,07,12.0,250.2,M,171.6,M,,*62,Forbidden
00025,$GPGGA,163348.00,5006.98877,N,01427.66492,E,1,07,8.1,250.2,M,22.3,M,,*6A,Forbidden
00026,$GPGGA,163348.00,5006.98877,N,01427.66492,E,1,07,8.1,250.2,M,22.3,M,,*6A,Forbidden
00027,$GPGGA,163359.00,5006.99170,N,01427.66174,E,1,07,12.0,254.2,M,171.3,M,,*61,Created
00028,$GPGGA,163359.00,5006.99170,N,01427.66174,E,1,07,12.0,254.2,M,171.3,M,,*61,Forbidden
00029,$GPGGA,163359.00,5006.99170,N,01427.66174,E,1,07,8.1,254.2,M,23.9,M,,*67,Forbidden
00030,$GPGGA,163359.00,5006.99170,N,01427.66174,E,1,07,8.1,254.2,M,23.9,M,,*67,Forbidden
00031,$GPGGA,163411.00,5006.99121,N,01427.66431,E,1,07,12.0,249.9,M,171.4,M,,*6A,Created
00032,$GPGGA,163411.00,5006.99121,N,01427.66431,E,1,07,12.0,249.9,M,171.4,M,,*6A,Forbidden
00033,$GPGGA,163411.00,5006.99121,N,01427.66431,E,1,07,8.1,249.9,M,23.3,M,,*61,Forbidden
00034,$GPGGA,163411.00,5006.99121,N,01427.66431,E,1,07,8.1,249.9,M,23.3,M,,*61,Forbidden
00035,$GPGGA,163422.00,5006.99268,N,01427.66309,E,1,07,12.0,250.4,M,171.3,M,,*6A,Created
00036,$GPGGA,163422.00,5006.99268,N,01427.66309,E,1,07,12.0,250.4,M,171.3,M,,*6A,Forbidden
00037,$GPGGA,163422.00,5006.99268,N,01427.66309,E,1,07,8.1,250.4,M,24.4,M,,*66,Forbidden
00038,$GPGGA,163422.00,5006.99268,N,01427.66309,E,1,07,8.1,250.4,M,24.4,M,,*66,Forbidden
00039,$GPGGA,163433.00,5006.99316,N,01427.65918,E,1,07,12.0,248.3,M,171.8,M,,*6E,Created
00040,$GPGGA,163433.00,5006.99316,N,01427.65918,E,1,07,12.0,248.3,M,171.8,M,,*6E,Forbidden
00041,$GPGGA,163433.00,5006.99316,N,01427.65918,E,1,07,8.1,248.3,M,23.5,M,,*6F,Forbidden
00042,$GPGGA,163433.00,5006.99316,N,01427.65918,E,1,07,8.1,248.3,M,23.5,M,,*6F,Forbidden
00043,$GPGGA,163444.00,5006.98926,N,01427.64331,E,1,07,12.0,247.5,M,171.4,M,,*63,Created
00044,$GPGGA,163444.00,5006.98926,N,01427.64331,E,1,07,12.0,247.5,M,171.4,M,,*63,Forbidden
00045,$GPGGA,163444.00,5006.98926,N,01427.64331,E,1,07,8.1,247.5,M,23.0,M,,*6B,Forbidden
00046,$GPGGA,163444.00,5006.98926,N,01427.64331,E,1,07,8.1,247.5,M,23.0,M,,*6B,Forbidden
00047,$GPGGA,163456.00,5006.98535,N,01427.62769,E,1,07,12.0,248.1,M,171.3,M,,*6D,Created
00048,$GPGGA,163456.00,5006.98535,N,01427.62769,E,1,07,12.0,248.1,M,171.3,M,,*6D,Forbidden
00049,$GPGGA,163456.00,5006.98535,N,01427.62769,E,1,07,8.1,248.1,M,22.7,M,,*64,Forbidden
00050,$GPGGA,163456.00,5006.98535,N,01427.62769,E,1,07,8.1,248.1,M,22.7,M,,*64,Forbidden
00051,$GPGGA,163507.00,5006.98438,N,01427.62280,E,1,07,12.0,244.4,M,171.6,M,,*6A,Created
00052,$GPGGA,163507.00,5006.98438,N,01427.62280,E,1,07,12.0,244.4,M,171.6,M,,*6A,Forbidden
00053,$GPGGA,163507.00,5006.98438,N,01427.62280,E,1,07,8.1,244.4,M,23.7,M,,*67,Forbidden
00054,$GPGGA,163507.00,5006.98438,N,01427.62280,E,1,07,8.1,244.4,M,23.7,M,,*67,Forbidden
00055,$GPGGA,163518.00,5006.98730,N,01427.60876,E,1,07,12.0,241.6,M,171.3,M,,*6C,Created
00056,$GPGGA,163518.00,5006.98730,N,01427.60876,E,1,07,12.0,241.6,M,171.3,M,,*6C,Forbidden
00057,$GPGGA,163518.00,5006.98730,N,01427.60876,E,1,07,8.1,241.6,M,24.2,M,,*66,Forbidden
00058,$GPGGA,163518.00,5006.98730,N,01427.60876,E,1,07,8.1,241.6,M,24.2,M,,*66,Forbidden
00059,$GPGGA,163528.00,5006.98291,N,01427.57532,E,1,07,12.0,242.3,M,171.1,M,,*6C,Created
00060,$GPGGA,163528.00,5006.98291,N,01427.57532,E,1,07,12.0,242.3,M,171.1,M,,*6C,Forbidden
00061,$GPGGA,163528.00,5006.98291,N,01427.57532,E,1,07,8.1,242.3,M,25.1,M,,*66,Forbidden
00062,$GPGGA,163528.00,5006.98291,N,01427.57532,E,1,07,8.1,242.3,M,25.1,M,,*66,Forbidden
00063,$GPGGA,163539.00,5006.98926,N,01427.50330,E,1,07,12.0,241.1,M,171.6,M,,*6E,Created
00064,$GPGGA,163539.00,5006.98926,N,01427.50330,E,1,07,12.0,241.1,M,171.6,M,,*6E,Forbidden
00065,$GPGGA,163539.00,5006.98926,N,01427.50330,E,1,07,8.1,241.1,M,24.4,M,,*67,Forbidden
00066,$GPGGA,163539.00,5006.98926,N,01427.50330,E,1,07,8.1,241.1,M,24.4,M,,*67,Forbidden
00067,$GPGGA,163551.00,5006.99414,N,01427.46204,E,1,07,12.0,238.0,M,171.6,M,,*63,Created
00068,$GPGGA,163551.00,5006.99414,N,01427.46204,E,1,07,12.0,238.0,M,171.6,M,,*63,Forbidden
00069,$GPGGA,163551.00,5006.99414,N,01427.46204,E,1,07,8.1,238.0,M,24.9,M,,*67,Forbidden
00070,$GPGGA,163551.00,5006.99414,N,01427.46204,E,1,07,8.1,238.0,M,24.9,M,,*67,Forbidden
00071,$GPGGA,163602.00,5006.99512,N,01427.39624,E,1,07,12.0,225.6,M,171.4,M,,*67,Created
00072,$GPGGA,163602.00,5006.99512,N,01427.39624,E,1,07,12.0,225.6,M,171.4,M,,*67,Forbidden
00073,$GPGGA,163602.00,5006.99512,N,01427.39624,E,1,07,8.1,225.6,M,24.0,M,,*68,Forbidden
00074,$GPGGA,163602.00,5006.99512,N,01427.39624,E,1,07,8.1,225.6,M,24.0,M,,*68,Forbidden
00075,$GPGGA,163613.00,5007.02295,N,01427.37878,E,1,07,12.0,224.5,M,171.6,M,,*65,Created
00076,$GPGGA,770191705192478171952316416.00,  -0.00000,N,-159690581142342071222272.00000,E,1,072,141.3,0.0,M,5014.1,M,,*64,Created
00077,$GPGGA,163624.00,5007.07861,N,01427.41870,E,1,07,8.1,221.7,M,24.2,M,,*64,Created
00078,$GPGGA,195931136489989031744893878272.00,  -0.00000,N, 541.05280,E,1,072,141.5,0.0,M,5019.5,M,,*6A,Created
00079,$GPGGA,163635.00,5007.09375,N,01427.50366,E,1,07,8.1,225.7,M,24.0,M,,*6E,Created
00080,$GPGGA,163647.00,5007.08252,N,01427.57056,E,1,07,12.0,231.8,M,170.9,M,,*60,Created
00081,$GPGGA,163647.00,5007.08252,N,01427.57056,E,1,07,12.0,231.8,M,170.9,M,,*60,Forbidden
00082,$GPGGA,163647.00,5007.08252,N,01427.57056,E,1,07,8.1,231.8,M,23.7,M,,*63,Forbidden
00083,$GPGGA,163647.00,5007.08252,N,01427.57056,E,1,07,8.1,231.8,M,23.7,M,,*63,Forbidden
00084,$GPGGA,163658.00,5007.06396,N,01427.58972,E,1,07,12.0,224.9,M,171.1,M,,*65,Created
00085,$GPGGA,163658.00,5007.06396,N,01427.58972,E,1,07,12.0,224.9,M,171.1,M,,*65,Forbidden
00086,$GPGGA,163658.00,5007.06396,N,01427.58972,E,1,07,8.1,224.9,M,23.9,M,,*61,Forbidden
00087,$GPGGA,163658.00,5007.06396,N,01427.58972,E,1,07,8.1,224.9,M,23.9,M,,*61,Forbidden
00088,$GPGGA,163708.00,5007.04395,N,01427.50317,E,1,07,12.0,218.0,M,171.1,M,,*67,Created
00089,$GPGGA,163708.00,5007.04395,N,01427.50317,E,1,07,12.0,218.0,M,171.1,M,,*67,Forbidden
00090,$GPGGA,163708.00,5007.04395,N,01427.50317,E,1,07,8.1,218.0,M,23.9,M,,*63,Forbidden
00091,$GPGGA,163708.00,5007.04395,N,01427.50317,E,1,07,8.1,218.0,M,23.9,M,,*63,Forbidden
00092,$GPGGA,163719.00,5007.06055,N,01427.37378,E,1,07,12.0,211.4,M,170.9,M,,*66,Created
00093,$GPGGA,163719.00,5007.06055,N,01427.37378,E,1,07,12.0,211.4,M,170.9,M,,*66,Forbidden
00094,$GPGGA,163719.00,5007.06055,N,01427.37378,E,1,07,8.1,211.4,M,22.8,M,,*6B,Forbidden
00095,$GPGGA,163719.00,5007.06055,N,01427.37378,E,1,07,8.1,211.4,M,22.8,M,,*6B,Forbidden
00096,$GPGGA,163731.00,5007.06787,N,01427.22998,E,1,07,12.0,204.4,M,170.8,M,,*61,Created
00097,$GPGGA,163731.00,5007.06787,N,01427.22998,E,1,07,8.1,204.4,M,24.9,M,,*6A,Forbidden
00098,$GPGGA,163731.00,5007.06787,N,01427.22998,E,1,07,8.1,204.4,M,24.9,M,,*6A,Forbidden
00099,$GPGGA,262670347368712298272551621972740538368.00,-139142704.00000,N,   0.00000,E,1,072,141.1,0.0,M,5003.7,M,,*5D,Created
00100,$GPGGA,163753.00,5007.01807,N,01426.99878,E,1,07,8.1,199.7,M,23.3,M,,*69,Created
00101,$GPGGA,163753.00,5007.01807,N,01426.99878,E,1,07,8.1,199.7,M,23.3,M,,*69,Forbidden
00102,$GPGGA,163804.00,5006.98828,N,01426.89978,E,1,08,12.0,201.4,M,171.1,M,,*68,Created
00103,$GPGGA,163804.00,5006.98828,N,01426.89978,E,1,08,12.0,201.4,M,171.1,M,,*68,Forbidden
00104,$GPGGA,163804.00,5006.98828,N,01426.89978,E,1,08,8.1,201.4,M,24.4,M,,*66,Forbidden
00105,$GPGGA,163804.00,5006.98828,N,01426.89978,E,1,08,8.1,201.4,M,24.4,M,,*66,Forbidden
00106,$GPGGA,0000-0.00,-206251408.00000,N,0  -0.00000,E,1,00,0.0,0.0,M,-279.4,M,,*6A,Created
00107,$GPGGA,0000 0.00,       nan,N,       nan,E,1,072,120.7,0.0,M,4242.8,M,,*75,Created
00108,$GPGGA,164102.00,5006.88232,N,01426.66895,E,1,09,8.1,190.7,M,23.7,M,,*60,Created
00109,$GPGGA,3645283062712926994432.00,  -0.00000,N,   0.00000,E,1,072,139.5,0.0,M,4945.6,M,,*61,Created
00110,$GPGGA,164257.00,5006.88330,N,01426.67126,E,1,09,8.1,188.4,M,24.2,M,,*68,Created
00111,$GPGGA,164319.00,5006.88330,N,01426.67029,E,1,09,12.0,188.6,M,170.4,M,,*63,Created
00112,$GPGGA,164319.00,5006.88330,N,01426.67029,E,1,09,12.0,188.6,M,170.4,M,,*63,Forbidden
00113,$GPGGA,164319.00,5006.88330,N,01426.67029,E,1,09,8.1,188.6,M,24.4,M,,*69,Forbidden
00114,$GPGGA,164330.00,5006.88379,N,01426.66943,E,1,09,12.0,191.8,M,169.6,M,,*6D,Created
00115,$GPGGA,164330.00,5006.88379,N,01426.66943,E,1,09,8.1,191.8,M,24.5,M,,*6C,Forbidden
00116,$GPGGA,164330.00,5006.88379,N,01426.66943,E,1,09,8.1,191.8,M,24.5,M,,*6C,Forbidden
00117,$GPGGA,0000 0.12,-206251328.00000,N,   0.00000,E,1,072,139.4,0.0,M,4943.2,M,,*7B,Created
00118,$GPGGA,164414.00,5006.87549,N,01426.62915,E,1,09,12.0,186.0,M,169.4,M,,*6D,Created
00119,$GPGGA,164414.00,5006.87549,N,01426.62915,E,1,09,12.0,186.0,M,169.4,M,,*6D,Forbidden
00120,$GPGGA,164414.00,5006.87549,N,01426.62915,E,1,09,8.1,186.0,M,24.2,M,,*69,Forbidden
00121,$GPGGA,164414.00,5006.87549,N,01426.62915,E,1,09,8.1,186.0,M,24.2,M,,*69,Forbidden
00122,$GPGGA,164425.00,5006.87646,N,01426.62817,E,1,09,12.0,185.2,M,169.7,M,,*62,Created
00123,$GPGGA,164425.00,5006.87646,N,01426.62817,E,1,09,12.0,185.2,M,169.7,M,,*62,Forbidden
00124,$GPGGA,3559846740930592768.00,-206251344.00000,N,   0.00000,E,1,072,138.5,0.0,M,4907.2,M,,*5C,Created
00125,$GPGGA,164533.00,5006.95068,N,01426.82800,E,1,09,12.0,197.3,M,169.4,M,,*64,Created
00126,$GPGGA,262670327086302694620881198025489252352.00,-206251424.00000,N,0   0.00000,E,1,00,0.1,0.0,M,-276.6,M,,*4B,Created
00127,$GPGGA,164554.00,5006.98877,N,01426.92529,E,1,09,12.0,195.4,M,169.0,M,,*68,Created
00128,$GPGGA,164554.00,5006.98877,N,01426.92529,E,1,09,8.1,195.4,M,23.5,M,,*68,Forbidden
00129,$GPGGA,7900103195756593152.00,-107619728.00000,N,   0.00001,E,1,072,140.6,0.0,M,4986.7,M,,*5B,Created
00130,$GPGGA,164605.00,5007.00049,N,01426.96423,E,1,09,8.1,189.8,M,23.5,M,,*64,Created
00131,$GPGGA,164605.00,5007.00049,N,01426.96423,E,1,09,8.1,189.8,M,23.5,M,,*64,Forbidden
00132,$GPGGA,164617.00,5007.02100,N,01427.03235,E,1,09,12.0,187.6,M,168.5,M,,*61,Created
00133,$GPGGA,0000 0.00,       nan,N,       nan,E,1,072,141.0,0.0,M,4999.9,M,,*79,Created
00134,$GPGGA,164628.00,5007.03809,N,01427.09485,E,1,09,12.0,185.8,M,168.7,M,,*65,Created
00135,$GPGGA,164628.00,5007.03809,N,01427.09485,E,1,09,8.1,185.8,M,24.5,M,,*64,Forbidden
00136,$GPGGA,164628.00,5007.03809,N,01427.09485,E,1,09,8.1,185.8,M,24.5,M,,*64,Forbidden
00137,$GPGGA,164639.00,5007.05518,N,01427.16895,E,1,09,12.0,189.5,M,169.0,M,,*6A,Created
00138,$GPGGA,164639.00,5007.05518,N,01427.16895,E,1,09,8.1,189.5,M,24.9,M,,*61,Forbidden
00139,$GPGGA,164639.00,5007.05518,N,01427.16895,E,1,09,8.1,189.5,M,24.9,M,,*61,Forbidden
00140,$GPGGA,3443019064832125218848768.00,  -0.00000,N,-2655048138670360785970003968.00000,E,1,072,141.2,0.0,M,5009.0,M,,*66,Created
00141,$GPGGA,164701.00,5007.05908,N,01427.34644,E,1,09,12.0,205.2,M,168.5,M,,*6B,Created
00142,$GPGGA,164701.00,5007.05908,N,01427.34644,E,1,09,8.1,205.2,M,23.2,M,,*68,Forbidden
00143,$GPGGA,164701.00,5007.05908,N,01427.34644,E,1,09,8.1,205.2,M,23.2,M,,*68,Forbidden
00144,$GPGGA,164713.00,5007.03809,N,01427.44226,E,1,09,12.0,215.6,M,168.7,M,,*6E,Created
00145,$GPGGA,164713.00,5007.03809,N,01427.44226,E,1,09,12.0,215.6,M,168.7,M,,*6E,Forbidden
00146,$GPGGA,164724.00,5007.04053,N,01427.51978,E,1,09,12.0,217.4,M,168.5,M,,*6C,Created
00147,$GPGGA,164724.00,5007.04053,N,01427.51978,E,1,09,12.0,217.4,M,168.5,M,,*6C,Forbidden
00148,$GPGGA,164724.00,5007.04053,N,01427.51978,E,1,09,8.1,217.4,M,23.3,M,,*6E,Forbidden
00149,$GPGGA,164724.00,5007.04053,N,01427.51978,E,1,09,8.1,217.4,M,23.3,M,,*6E,Forbidden
00150,$GPGGA,164734.00,5007.05518,N,01427.58960,E,1,09,12.0,221.9,M,168.4,M,,*6F,Created
00151,$GPGGA,164734.00,5007.05518,N,01427.58960,E,1,09,12.0,221.9,M,168.4,M,,*6F,Forbidden
00152,$GPGGA,164734.00,5007.05518,N,01427.58960,E,1,09,8.1,221.9,M,24.2,M,,*6A,Forbidden
00153,$GPGGA,164734.00,5007.05518,N,01427.58960,E,1,09,8.1,221.9,M,24.2,M,,*6A,Forbidden
00154,$GPGGA,164745.00,5007.06006,N,01427.67883,E,1,09,12.0,224.4,M,168.9,M,,*65,Created
00155,$GPGGA,164745.00,5007.06006,N,01427.67883,E,1,09,12.0,224.4,M,168.9,M,,*65,Forbidden
00156,$GPGGA,164745.00,5007.06006,N,01427.67883,E,1,09,8.1,224.4,M,24.2,M,,*6D,Forbidden
00157,$GPGGA,164745.00,5007.06006,N,01427.67883,E,1,09,8.1,224.4,M,24.2,M,,*6D,Forbidden
00158,$GPGGA,164757.00,5007.05859,N,01427.78467,E,1,09,12.0,232.5,M,168.5,M,,*65,Created
00159,$GPGGA,164757.00,5007.05859,N,01427.78467,E,1,09,12.0,232.5,M,168.5,M,,*65,Forbidden
00160,$GPGGA,164757.00,5007.05859,N,01427.78467,E,1,09,8.1,232.5,M,24.0,M,,*63,Forbidden
00161,$GPGGA,164757.00,5007.05859,N,01427.78467,E,1,09,8.1,232.5,M,24.0,M,,*63,Forbidden
00162,$GPGGA,164808.00,5007.05566,N,01427.88464,E,1,09,12.0,238.0,M,168.9,M,,*6E,Created
00163,$GPGGA,164808.00,5007.05566,N,01427.88464,E,1,09,12.0,238.0,M,168.9,M,,*6E,Forbidden
00164,$GPGGA,164808.00,5007.05566,N,01427.88464,E,1,09,8.1,238.0,M,24.5,M,,*61,Forbidden
00165,$GPGGA,164808.00,5007.05566,N,01427.88464,E,1,09,8.1,238.0,M,24.5,M,,*61,Forbidden
00166,$GPGGA,164819.00,5007.04980,N,01427.99243,E,1,09,12.0,243.3,M,168.4,M,,*6A,Created
00167,$GPGGA,164819.00,5007.04980,N,01427.99243,E,1,09,12.0,243.3,M,168.4,M,,*6A,Forbidden
00168,$GPGGA,164819.00,5007.04980,N,01427.99243,E,1,09,8.1,243.3,M,24.4,M,,*69,Forbidden
00169,$GPGGA,164819.00,5007.04980,N,01427.99243,E,1,09,8.1,243.3,M,24.4,M,,*69,Forbidden
00170,$GPGGA,-12956792.00,   0.00000,N,   0.00000,E,1,072,140.7,0.0,M,4990.5,M,,*42,Created
00171,$GPGGA,164914.00,5007.13770,N,01427.92126,E,1,09,12.0,247.6,M,168.9,M,,*66,Created
00172,$GPGGA,164914.00,5007.13770,N,01427.92126,E,1,09,8.1,247.6,M,24.5,M,,*69,Forbidden
00173,$GPGGA,164914.00,5007.13770,N,01427.92126,E,1,09,8.1,247.6,M,24.5,M,,*69,Forbidden
00174,$GPGGA,164925.00,5007.15869,N,01427.82336,E,1,08,12.0,252.3,M,168.5,M,,*6B,Created
00175,$GPGGA,164925.00,5007.15869,N,01427.82336,E,1,08,12.0,252.3,M,168.5,M,,*6B,Forbidden
00176,$GPGGA,164925.00,5007.15869,N,01427.82336,E,1,08,8.1,252.3,M,23.7,M,,*6D,Forbidden
00177,$GPGGA,164925.00,5007.15869,N,01427.82336,E,1,08,8.1,252.3,M,23.7,M,,*6D,Forbidden
00178,$GPGGA,164936.00,5007.17236,N,01427.71899,E,1,08,12.0,251.2,M,168.4,M,,*6A,Created
00179,$GPGGA,164936.00,5007.17236,N,01427.71899,E,1,08,12.0,251.2,M,168.4,M,,*6A,Forbidden
00180,$GPGGA,164936.00,5007.17236,N,01427.71899,E,1,08,8.1,251.2,M,24.5,M,,*68,Forbidden
00181,$GPGGA,164936.00,5007.17236,N,01427.71899,E,1,08,8.1,251.2,M,24.5,M,,*68,Forbidden
00182,$GPGGA,164948.00,5007.18359,N,01427.61560,E,1,09,12.0,263.0,M,168.2,M,,*6A,Created
00183,$GPGGA,164948.00,5007.18359,N,01427.61560,E,1,09,12.0,263.0,M,168.2,M,,*6A,Forbidden
00184,$GPGGA,164948.00,5007.18359,N,01427.61560,E,1,09,8.1,263.0,M,24.4,M,,*6F,Forbidden
00185,$GPGGA,164948.00,5007.18359,N,01427.61560,E,1,09,8.1,263.0,M,24.4,M,,*6F,Forbidden
00186,$GPGGA,164959.00,5007.19824,N,01427.53284,E,1,09,11.9,273.2,M,167.8,M,,*6A,Created
00187,$GPGGA,164959.00,5007.19824,N,01427.53284,E,1,09,11.9,273.2,M,167.8,M,,*6A,Forbidden
00188,$GPGGA,164959.00,5007.19824,N,01427.53284,E,1,09,8.1,273.2,M,23.2,M,,*61,Forbidden
00189,$GPGGA,164959.00,5007.19824,N,01427.53284,E,1,09,8.1,273.2,M,23.2,M,,*61,Forbidden
00190,$GPGGA,165010.00,5007.23633,N,01427.45752,E,1,09,11.9,272.7,M,168.0,M,,*64,Created
00191,$GPGGA,165010.00,5007.23633,N,01427.45752,E,1,09,11.9,272.7,M,168.0,M,,*64,Forbidden
00192,$GPGGA,165010.00,5007.23633,N,01427.45752,E,1,09,8.1,272.7,M,25.2,M,,*6E,Forbidden
00193,$GPGGA,165010.00,5007.23633,N,01427.45752,E,1,09,8.1,272.7,M,25.2,M,,*6E,Forbidden
00194,$GPGGA,0000 0.00,       nan,N,       nan,E,1,072,143.2,0.0,M,5082.7,M,,*75,Created
00195,$GPGGA,165033.00,5007.27393,N,01427.36658,E,1,08,12.0,280.3,M,168.4,M,,*67,Created
00196,$GPGGA,165033.00,5007.27393,N,01427.36658,E,1,08,8.1,280.3,M,23.0,M,,*67,Forbidden
00197,$GPGGA,165033.00,5007.27393,N,01427.36658,E,1,08,8.1,280.3,M,23.0,M,,*67,Forbidden
00198,$GPGGA,165044.00,5007.27393,N,01427.36536,E,1,09,11.9,287.4,M,167.7,M,,*6B,Created
00199,$GPGGA,165044.00,5007.27393,N,01427.36536,E,1,09,11.9,287.4,M,167.7,M,,*6B,Forbidden
00200,$GPGGA,165044.00,5007.27393,N,01427.36536,E,1,09,8.1,287.4,M,23.0,M,,*6D,Forbidden
00201,$GPGGA,165044.00,5007.27393,N,01427.36536,E,1,09,8.1,287.4,M,23.0,M,,*6D,Forbidden
00202,$GPGGA,131937274827691332147871744.00,107619728.00000,N,-10371367107872437726871552.00000,E,1,072,143.3,0.0,M,5089.1,M,,*46,Created
00203,$GPGGA,165757.00,5007.34033,N,01427.26489,E,1,09,8.1,291.3,M,24.9,M,,*69,Created
00204,$GPGGA,165757.00,5007.34033,N,01427.26489,E,1,09,8.1,291.3,M,24.9,M,,*69,Forbidden
00205,$GPGGA,165808.00,5007.29980,N,01427.32898,E,1,09,8.1,279.7,M,25.1,M,,*63,Created
00206,$GPGGA,0000-0.00,-206251712.00000,N,   0.00000,E,1,072,143.1,0.0,M,5079.5,M,,*76,Created
00207,$GPGGA,165830.00,5007.23145,N,01427.47791,E,1,09,11.9,268.6,M,167.0,M,,*60,Created
00208,$GPGGA,165830.00,5007.23145,N,01427.47791,E,1,09,11.9,268.6,M,167.0,M,,*60,Forbidden
00209,$GPGGA,165830.00,5007.23145,N,01427.47791,E,1,09,8.1,268.6,M,24.9,M,,*6F,Forbidden
00210,$GPGGA,165830.00,5007.23145,N,01427.47791,E,1,09,8.1,268.6,M,24.9,M,,*6F,Forbidden
00211,$GPGGA,165841.00,5007.19482,N,01427.55518,E,1,09,11.9,266.3,M,166.1,M,,*6A,Forbidden
00212,$GPGGA,165841.00,5007.19482,N,01427.55518,E,1,09,11.9,266.3,M,166.1,M,,*6A,Forbidden
00213,$GPGGA,165852.00,5007.18359,N,01427.63721,E,1,09,11.9,272.2,M,166.3,M,,*63,Forbidden
00214,$GPGGA,165852.00,5007.18359,N,01427.63721,E,1,09,11.9,272.2,M,166.3,M,,*63,Forbidden
00215,$GPGGA,165852.00,5007.18359,N,01427.63721,E,1,09,8.1,272.2,M,24.2,M,,*65,Forbidden
00216,$GPGGA,165852.00,5007.18359,N,01427.63721,E,1,09,8.1,272.2,M,24.2,M,,*65,Forbidden
00217,$GPGGA,165903.00,5007.16797,N,01427.73450,E,1,09,8.1,266.0,M,25.2,M,,*6A,Created
00218,$GPGGA,165903.00,5007.16797,N,01427.73450,E,1,09,8.1,266.0,M,25.2,M,,*6A,Forbidden
00219,$GPGGA,165915.00,5007.13135,N,01427.81921,E,1,09,11.9,247.6,M,166.3,M,,*62,Created
00220,$GPGGA,165915.00,5007.13135,N,01427.81921,E,1,09,11.9,247.6,M,166.3,M,,*62,Forbidden
00221,$GPGGA,165926.00,5007.11328,N,01427.76428,E,1,09,11.9,237.9,M,166.3,M,,*6A,Created
00222,$GPGGA,165926.00,5007.11328,N,01427.76428,E,1,09,11.9,237.9,M,166.3,M,,*6A,Forbidden
00223,$GPGGA,165926.00,5007.11328,N,01427.76428,E,1,09,8.1,237.9,M,25.1,M,,*6E,Forbidden
00224,$GPGGA,165926.00,5007.11328,N,01427.76428,E,1,09,8.1,237.9,M,25.1,M,,*6E,Forbidden
00225,$GPGGA,165937.00,5007.10693,N,01427.68701,E,1,09,11.9,234.9,M,166.3,M,,*6A,Created
00226,$GPGGA,165937.00,5007.10693,N,01427.68701,E,1,09,11.9,234.9,M,166.3,M,,*6A,Forbidden
00227,$GPGGA,165937.00,5007.10693,N,01427.68701,E,1,09,8.1,234.9,M,25.4,M,,*6B,Forbidden
00228,$GPGGA,165937.00,5007.10693,N,01427.68701,E,1,09,8.1,234.9,M,25.4,M,,*6B,Forbidden
00229,$GPGGA,165948.00,5007.10400,N,01427.63770,E,1,09,11.9,229.4,M,166.1,M,,*64,Created
00230,$GPGGA,165948.00,5007.10400,N,01427.63770,E,1,09,11.9,229.4,M,166.1,M,,*64,Forbidden
00231,$GPGGA,165948.00,5007.10400,N,01427.63770,E,1,09,8.1,229.4,M,24.5,M,,*67,Forbidden
00232,$GPGGA,165948.00,5007.10400,N,01427.63770,E,1,09,8.1,229.4,M,24.5,M,,*67,Forbidden
00233,$GPGGA,165959.00,5007.09912,N,01427.56433,E,1,09,11.9,224.1,M,166.0,M,,*69,Created
00234,$GPGGA,165959.00,5007.09912,N,01427.56433,E,1,09,11.9,224.1,M,166.0,M,,*69,Forbidden
00235,$GPGGA,165959.00,5007.09912,N,01427.56433,E,1,09,8.1,224.1,M,24.5,M,,*6B,Forbidden
00236,$GPGGA,165959.00,5007.09912,N,01427.56433,E,1,09,8.1,224.1,M,24.5,M,,*6B,Forbidden
00237,$GPGGA,170010.00,5007.09180,N,01427.50037,E,1,09,8.1,214.7,M,25.2,M,,*6D,Created
00238,$GPGGA,170010.00,5007.09180,N,01427.50037,E,1,09,8.1,214.7,M,25.2,M,,*6D,Forbidden
00239,$GPGGA,170021.00,5007.07666,N,01427.41357,E,1,08,11.9,218.0,M,166.1,M,,*64,Created
00240,$GPGGA,170021.00,5007.07666,N,01427.41357,E,1,08,8.1,218.0,M,24.2,M,,*60,Forbidden
00241,$GPGGA,170032.00,5007.02490,N,01427.37744,E,1,09,11.9,221.0,M,166.5,M,,*60,Created
00242,$GPGGA,170032.00,5007.02490,N,01427.37744,E,1,09,11.9,221.0,M,166.5,M,,*60,Forbidden
00243,$GPGGA,170043.00,5006.99951,N,01427.38196,E,1,09,11.9,222.2,M,166.0,M,,*67,Created
00244,$GPGGA,170043.00,5006.99951,N,01427.38196,E,1,09,8.1,222.2,M,24.5,M,,*65,Forbidden
00245,$GPGGA,170043.00,5006.99951,N,01427.38196,E,1,09,8.1,222.2,M,24.5,M,,*65,Forbidden
00246,$GPGGA,170055.00,5006.99561,N,01427.43384,E,1,08,11.9,236.1,M,166.0,M,,*65,Created
00247,$GPGGA,170055.00,5006.99561,N,01427.43384,E,1,08,11.9,236.1,M,166.0,M,,*65,Forbidden
00248,$GPGGA,170055.00,5006.99561,N,01427.43384,E,1,08,8.1,236.1,M,25.7,M,,*64,Forbidden
00249,$GPGGA,170055.00,5006.99561,N,01427.43384,E,1,08,8.1,236.1,M,25.7,M,,*64,Forbidden
00250,$GPGGA,170106.00,5006.99561,N,01427.50488,E,1,09,11.9,242.3,M,165.6,M,,*6E,Created
00251,$GPGGA,170106.00,5006.99561,N,01427.50488,E,1,09,11.9,242.3,M,165.6,M,,*6E,Forbidden
00252,$GPGGA,170106.00,5006.99561,N,01427.50488,E,1,09,8.1,242.3,M,24.5,M,,*69,Forbidden
00253,$GPGGA,170106.00,5006.99561,N,01427.50488,E,1,09,8.1,242.3,M,24.5,M,,*69,Forbidden
00254,$GPGGA,170117.00,5006.98633,N,01427.56836,E,1,09,11.9,242.9,M,166.1,M,,*6A,Created
00255,$GPGGA,170117.00,5006.98633,N,01427.56836,E,1,09,11.9,242.9,M,166.1,M,,*6A,Forbidden
00256,$GPGGA,170117.00,5006.98633,N,01427.56836,E,1,09,8.2,242.9,M,25.9,M,,*67,Forbidden
00257,$GPGGA,170117.00,5006.98633,N,01427.56836,E,1,09,8.2,242.9,M,25.9,M,,*67,Forbidden
00258,$GPGGA,170128.00,5006.98730,N,01427.60364,E,1,09,11.9,245.4,M,166.0,M,,*66,Forbidden
00259,$GPGGA,170128.00,5006.98730,N,01427.60364,E,1,09,11.9,245.4,M,166.0,M,,*66,Forbidden
00260,$GPGGA,170128.00,5006.98730,N,01427.60364,E,1,09,8.1,245.4,M,24.4,M,,*65,Forbidden
00261,$GPGGA,170128.00,5006.98730,N,01427.60364,E,1,09,8.1,245.4,M,24.4,M,,*65,Forbidden
00262,$GPGGA,170139.00,5006.98877,N,01427.60522,E,1,09,11.9,243.1,M,166.1,M,,*6C,Forbidden
00263,$GPGGA,170139.00,5006.98877,N,01427.60522,E,1,09,11.9,243.1,M,166.1,M,,*6C,Forbidden
00264,$GPGGA,170139.00,5006.98877,N,01427.60522,E,1,09,8.1,243.1,M,25.4,M,,*6F,Forbidden
00265,$GPGGA,170139.00,5006.98877,N,01427.60522,E,1,09,8.1,243.1,M,25.4,M,,*6F,Forbidden
00266,$GPGGA,170150.00,5006.98877,N,01427.60583,E,1,09,11.9,239.0,M,166.1,M,,*64,Forbidden
00267,$GPGGA,170150.00,5006.98877,N,01427.60583,E,1,09,11.9,239.0,M,166.1,M,,*64,Forbidden
00268,$GPGGA,170150.00,5006.98877,N,01427.60583,E,1,09,8.1,239.0,M,24.5,M,,*67,Forbidden
00269,$GPGGA,170150.00,5006.98877,N,01427.60583,E,1,09,8.1,239.0,M,24.5,M,,*67,Forbidden
00270,$GPGGA,170201.00,5006.98730,N,01427.61975,E,1,09,11.9,235.8,M,165.8,M,,*65,Forbidden
00271,$GPGGA,170201.00,5006.98730,N,01427.61975,E,1,09,11.9,235.8,M,165.8,M,,*65,Forbidden
00272,$GPGGA,170201.00,5006.98730,N,01427.61975,E,1,09,8.1,235.8,M,24.7,M,,*6E,Forbidden
00273,$GPGGA,170201.00,5006.98730,N,01427.61975,E,1,09,8.1,235.8,M,24.7,M,,*6E,Forbidden
00274,$GPGGA,170212.00,5006.99316,N,01427.65088,E,1,09,11.9,244.8,M,165.8,M,,*6F,Forbidden
00275,$GPGGA,170212.00,5006.99316,N,01427.65088,E,1,09,11.9,244.8,M,165.8,M,,*6F,Forbidden
00276,$GPGGA,170212.00,5006.99316,N,01427.65088,E,1,09,8.1,244.8,M,25.4,M,,*66,Forbidden
00277,$GPGGA,170212.00,5006.99316,N,01427.65088,E,1,09,8.1,244.8,M,25.4,M,,*66,Forbidden
00278,$GPGGA,170228.00,5006.99170,N,01427.66455,E,1,09,11.9,240.0,M,165.6,M,,*61,Forbidden
00279,$GPGGA,170228.00,5006.99170,N,01427.66455,E,1,09,11.9,240.0,M,165.6,M,,*61,Forbidden
00280,$GPGGA,170228.00,5006.99170,N,01427.66455,E,1,09,8.1,240.0,M,25.4,M,,*66,Forbidden
00281,$GPGGA,170228.00,5006.99170,N,01427.66455,E,1,09,8.1,240.0,M,25.4,M,,*66,Forbidden
00282,$GPGGA,170244.00,5006.99316,N,01427.66455,E,1,08,11.9,241.8,M,166.0,M,,*64,Forbidden
00283,$GPGGA,170244.00,5006.99316,N,01427.66455,E,1,08,11.9,241.8,M,166.0,M,,*64,Forbidden
00284,$GPGGA,170244.00,5006.99316,N,01427.66455,E,1,08,8.1,241.8,M,25.4,M,,*66,Forbidden
00285,$GPGGA,170244.00,5006.99316,N,01427.66455,E,1,08,8.1,241.8,M,25.4,M,,*66,Forbidden
00286,$GPGGA,170249.00,5006.99268,N,01427.66504,E,1,08,11.9,241.7,M,165.3,M,,*6B,Forbidden
00287,$GPGGA,170249.00,5006.99268,N,01427.66504,E,1,08,11.9,241.7,M,165.3,M,,*6B,Forbidden
00288,$GPGGA,170249.00,5006.99268,N,01427.66504,E,1,08,8.1,241.7,M,24.7,M,,*6B,Forbidden
00289,$GPGGA,170249.00,5006.99268,N,01427.66504,E,1,08,8.1,241.7,M,24.7,M,,*6B,Forbidden
00290,$GPGGA,170300.00,5006.99414,N,01427.66187,E,1,08,11.9,244.9,M,165.8,M,,*65,Forbidden
00291,$GPGGA,170300.00,5006.99414,N,01427.66187,E,1,08,11.9,244.9,M,165.8,M,,*65,Forbidden
00292,$GPGGA,170300.00,5006.99414,N,01427.66187,E,1,08,8.2,244.9,M,25.9,M,,*62,Forbidden
00293,$GPGGA,170300.00,5006.99414,N,01427.66187,E,1,08,8.2,244.9,M,25.9,M,,*62,Forbidden
00294,$GPGGA,170312.00,5006.99365,N,01427.66309,E,1,09,11.9,248.9,M,165.4,M,,*62,Forbidden
00295,$GPGGA,170312.00,5006.99365,N,01427.66309,E,1,09,11.9,248.9,M,165.4,M,,*62,Forbidden
00296,$GPGGA,170312.00,5006.99365,N,01427.66309,E,1,09,8.1,248.9,M,25.6,M,,*65,Forbidden
00297,$GPGGA,170312.00,5006.99365,N,01427.66309,E,1,09,8.1,248.9,M,25.6,M,,*65,Forbidden
00298,$GPGGA,170323.00,5006.99316,N,01427.66345,E,1,09,11.9,255.1,M,165.8,M,,*64,Created
00299,$GPGGA,170323.00,5006.99316,N,01427.66345,E,1,09,11.9,255.1,M,165.8,M,,*64,Forbidden
00300,$GPGGA,170323.00,5006.99316,N,01427.66345,E,1,09,8.1,255.1,M,24.7,M,,*6F,Forbidden
00301,$GPGGA,170323.00,5006.99316,N,01427.66345,E,1,09,8.1,255.1,M,24.7,M,,*6F,Forbidden
00302,$GPGGA,170335.00,5006.99121,N,01427.66455,E,1,09,11.9,244.7,M,165.8,M,,*65,Forbidden
00303,$GPGGA,170335.00,5006.99121,N,01427.66455,E,1,09,11.9,244.7,M,165.8,M,,*65,Forbidden
00304,$GPGGA,170335.00,5006.99121,N,01427.66455,E,1,09,8.1,244.7,M,24.9,M,,*60,Forbidden
00305,$GPGGA,170335.00,5006.99121,N,01427.66455,E,1,09,8.1,244.7,M,24.9,M,,*60,Forbidden
00306,$GPGGA,170346.00,5006.99121,N,01427.66467,E,1,09,11.9,246.4,M,165.6,M,,*6F,Forbidden
00307,$GPGGA,170346.00,5006.99121,N,01427.66467,E,1,09,11.9,246.4,M,165.6,M,,*6F,Forbidden
00308,$GPGGA,170346.00,5006.99121,N,01427.66467,E,1,09,8.1,246.4,M,23.9,M,,*63,Forbidden
00309,$GPGGA,170346.00,5006.99121,N,01427.66467,E,1,09,8.1,246.4,M,23.9,M,,*63,Forbidden
00310,$GPGGA,170357.00,5006.99072,N,01427.66406,E,1,09,11.9,250.7,M,165.4,M,,*69,Forbidden
00311,$GPGGA,170357.00,5006.99072,N,01427.66406,E,1,09,11.9,250.7,M,165.4,M,,*69,Forbidden
00312,$GPGGA,170357.00,5006.99072,N,01427.66406,E,1,09,8.1,250.7,M,23.7,M,,*69,Forbidden
00313,$GPGGA,170357.00,5006.99072,N,01427.66406,E,1,09,8.1,250.7,M,23.7,M,,*69,Forbidden
00314,$GPGGA,170408.00,5006.98975,N,01427.66504,E,1,09,11.9,253.0,M,165.4,M,,*6C,Forbidden
00315,$GPGGA,170408.00,5006.98975,N,01427.66504,E,1,09,11.9,253.0,M,165.4,M,,*6C,Forbidden
00316,$GPGGA,170408.00,5006.98975,N,01427.66504,E,1,09,8.1,253.0,M,24.4,M,,*68,Forbidden
00317,$GPGGA,170408.00,5006.98975,N,01427.66504,E,1,09,8.1,253.0,M,24.4,M,,*68,Forbidden
00318,$GPGGA,170419.00,5006.99072,N,01427.66663,E,1,09,11.9,244.3,M,165.4,M,,*64,Forbidden
00319,$GPGGA,170419.00,5006.99072,N,01427.66663,E,1,09,11.9,244.3,M,165.4,M,,*64,Forbidden
00320,$GPGGA,170419.00,5006.99072,N,01427.66663,E,1,09,8.1,244.3,M,24.7,M,,*63,Forbidden
00321,$GPGGA,170419.00,5006.99072,N,01427.66663,E,1,09,8.1,244.3,M,24.7,M,,*63,Forbidden
00322,$GPGGA,170430.00,5006.99219,N,01427.66724,E,1,09,11.9,241.9,M,165.3,M,,*6A,Forbidden
00323,$GPGGA,170430.00,5006.99219,N,01427.66724,E,1,09,11.9,241.9,M,165.3,M,,*6A,Forbidden
00324,$GPGGA,170430.00,5006.99219,N,01427.66724,E,1,09,8.1,241.9,M,23.7,M,,*6D,Forbidden
00325,$GPGGA,170430.00,5006.99219,N,01427.66724,E,1,09,8.1,241.9,M,23.7,M,,*6D,Forbidden
00326,$GPGGA,170441.00,5006.99219,N,01427.66736,E,1,08,11.9,242.3,M,165.4,M,,*60,Forbidden
00327,$GPGGA,170441.00,5006.99219,N,01427.66736,E,1,08,11.9,242.3,M,165.4,M,,*60,Forbidden
00328,$GPGGA,170441.00,5006.99219,N,01427.66736,E,1,08,8.1,242.3,M,23.7,M,,*60,Forbidden
00329,$GPGGA,170441.00,5006.99219,N,01427.66736,E,1,08,8.1,242.3,M,23.7,M,,*60,Forbidden
00330,$GPGGA,170457.00,5006.99365,N,01427.66895,E,1,09,11.9,246.6,M,165.3,M,,*6C,Forbidden
00331,$GPGGA,170457.00,5006.99365,N,01427.66895,E,1,09,11.9,246.6,M,165.3,M,,*6C,Forbidden
00332,$GPGGA,170457.00,5006.99365,N,01427.66895,E,1,09,8.1,246.6,M,24.0,M,,*6B,Forbidden
00333,$GPGGA,170457.00,5006.99365,N,01427.66895,E,1,09,8.1,246.6,M,24.0,M,,*6B,Forbidden
00334,$GPGGA,170513.00,5006.99170,N,01427.66382,E,1,09,11.9,247.3,M,165.3,M,,*62,Forbidden
00335,$GPGGA,170513.00,5006.99170,N,01427.66382,E,1,09,11.9,247.3,M,165.3,M,,*62,Forbidden
00336,$GPGGA,170513.00,5006.99170,N,01427.66382,E,1,09,8.1,247.3,M,22.8,M,,*6B,Forbidden
00337,$GPGGA,170513.00,5006.99170,N,01427.66382,E,1,09,8.1,247.3,M,22.8,M,,*6B,Forbidden
00338,$GPGGA,170529.00,5006.99121,N,01427.65088,E,1,09,11.9,241.7,M,164.9,M,,*6C,Forbidden
00339,$GPGGA,170529.00,5006.99121,N,01427.65088,E,1,09,11.9,241.7,M,164.9,M,,*6C,Forbidden
00340,$GPGGA,170529.00,5006.99121,N,01427.65088,E,1,09,8.0,241.7,M,20.6,M,,*63,Forbidden
00341,$GPGGA,170529.00,5006.99121,N,01427.65088,E,1,09,8.0,241.7,M,20.6,M,,*63,Forbidden
00342,$GPGGA,170546.00,5006.98975,N,01427.65002,E,1,09,11.9,239.9,M,165.6,M,,*60,Forbidden
00343,$GPGGA,170546.00,5006.98975,N,01427.65002,E,1,09,11.9,239.9,M,165.6,M,,*60,Forbidden
00344,$GPGGA,170546.00,5006.98975,N,01427.65002,E,1,09,7.9,239.9,M,17.7,M,,*62,Forbidden
00345,$GPGGA,170546.00,5006.98975,N,01427.65002,E,1,09,7.9,239.9,M,17.7,M,,*62,Forbidden
00346,$GPGGA,170602.00,5006.99023,N,01427.64905,E,1,08,11.9,243.3,M,164.9,M,,*6F,Forbidden
00347,$GPGGA,170602.00,5006.99023,N,01427.64905,E,1,08,11.9,243.3,M,164.9,M,,*6F,Forbidden
00348,$GPGGA,170602.00,5006.99023,N,01427.64905,E,1,08,8.0,243.3,M,18.4,M,,*69,Forbidden
00349,$GPGGA,170602.00,5006.99023,N,01427.64905,E,1,08,8.0,243.3,M,18.4,M,,*69,Forbidden
00350,$GPGGA,170618.00,5006.98975,N,01427.64758,E,1,08,11.9,245.5,M,165.4,M,,*65,Forbidden
00351,$GPGGA,170618.00,5006.98975,N,01427.64758,E,1,08,11.9,245.5,M,165.4,M,,*65,Forbidden
00352,$GPGGA,170618.00,5006.98975,N,01427.64758,E,1,08,8.0,245.5,M,18.5,M,,*6E,Forbidden
00353,$GPGGA,170618.00,5006.98975,N,01427.64758,E,1,08,8.0,245.5,M,18.5,M,,*6E,Forbidden
00354,$GPGGA,170634.00,5006.98975,N,01427.64758,E,1,08,11.9,245.5,M,165.1,M,,*6E,Forbidden
00355,$GPGGA,170634.00,5006.98975,N,01427.64758,E,1,08,11.9,245.5,M,165.1,M,,*6E,Forbidden
00356,$GPGGA,170634.00,5006.98975,N,01427.64758,E,1,08,8.0,245.5,M,19.9,M,,*6D,Forbidden
00357,$GPGGA,170634.00,5006.98975,N,01427.64758,E,1,08,8.0,245.5,M,19.9,M,,*6D,Forbidden
00358,$GPGGA,170651.00,5006.98975,N,01427.64758,E,1,08,11.9,245.5,M,165.3,M,,*6F,Forbidden
00359,$GPGGA,170651.00,5006.98975,N,01427.64758,E,1,08,11.9,245.5,M,165.3,M,,*6F,Forbidden
00360,$GPGGA,170651.00,5006.98975,N,01427.64758,E,1,08,8.0,245.5,M,20.6,M,,*6B,Forbidden
00361,$GPGGA,170651.00,5006.98975,N,01427.64758,E,1,08,8.0,245.5,M,20.6,M,,*6B,Forbidden
00362,$GPGGA,170707.00,5006.98975,N,01427.64758,E,1,08,11.9,245.5,M,165.4,M,,*6A,Forbidden
00363,$GPGGA,170707.00,5006.98975,N,01427.64758,E,1,08,11.9,245.5,M,165.4,M,,*6A,Forbidden
00364,$GPGGA,170707.00,5006.98975,N,01427.64758,E,1,08,8.0,245.5,M,21.3,M,,*6D,Forbidden
00365,$GPGGA,170707.00,5006.98975,N,01427.64758,E,1,08,8.0,245.5,M,21.3,M,,*6D,Forbidden
00366,$GPGGA,170723.00,5006.98975,N,01427.64758,E,1,08,11.9,245.5,M,165.3,M,,*6B,Forbidden
00367,$GPGGA,170723.00,5006.98975,N,01427.64758,E,1,08,11.9,245.5,M,165.3,M,,*6B,Forbidden
00368,$GPGGA,170723.00,5006.98975,N,01427.64758,E,1,08,8.0,245.5,M,20.9,M,,*60,Forbidden
00369,$GPGGA,170723.00,5006.98975,N,01427.64758,E,1,08,8.0,245.5,M,20.9,M,,*60,Forbidden
00370,$GPGGA,170739.00,5006.98975,N,01427.64758,E,1,08,11.9,245.5,M,165.8,M,,*6B,Forbidden
00371,$GPGGA,170739.00,5006.98975,N,01427.64758,E,1,08,11.9,245.5,M,165.8,M,,*6B,Forbidden
00372,$GPGGA,170739.00,5006.98975,N,01427.64758,E,1,08,8.0,245.5,M,21.5,M,,*66,Forbidden
00373,$GPGGA,170739.00,5006.98975,N,01427.64758,E,1,08,8.0,245.5,M,21.5,M,,*66,Forbidden
00374,$GPGGA,170756.00,5006.98975,N,01427.64758,E,1,08,11.9,245.5,M,164.9,M,,*62,Forbidden
00375,$GPGGA,170756.00,5006.98975,N,01427.64758,E,1,08,11.9,245.5,M,164.9,M,,*62,Forbidden
00376,$GPGGA,170756.00,5006.98975,N,01427.64758,E,1,08,8.0,245.5,M,22.0,M,,*69,Forbidden
00377,$GPGGA,170756.00,5006.98975,N,01427.64758,E,1,08,8.0,245.5,M,22.0,M,,*69,Forbidden
00378,$GPGGA,170812.00,5006.98975,N,01427.64758,E,1,08,11.9,245.5,M,165.3,M,,*66,Forbidden
00379,$GPGGA,170812.00,5006.98975,N,01427.64758,E,1,08,11.9,245.5,M,165.3,M,,*66,Forbidden
00380,$GPGGA,170812.00,5006.98975,N,01427.64758,E,1,08,8.1,245.5,M,22.3,M,,*64,Forbidden
00381,$GPGGA,170812.00,5006.98975,N,01427.64758,E,1,08,8.1,245.5,M,22.3,M,,*64,Forbidden
00382,$GPGGA,170828.00,5006.98975,N,01427.64758,E,1,08,11.9,245.5,M,164.8,M,,*65,Forbidden
00383,$GPGGA,170828.00,5006.98975,N,01427.64758,E,1,08,11.9,245.5,M,164.8,M,,*65,Forbidden
00384,$GPGGA,170828.00,5006.98975,N,01427.64758,E,1,08,8.1,245.5,M,23.0,M,,*6F,Forbidden
00385,$GPGGA,170828.00,5006.98975,N,01427.64758,E,1,08,8.1,245.5,M,23.0,M,,*6F,Forbidden
00386,$GPGGA,170844.00,5006.98975,N,01427.64758,E,1,08,11.9,245.5,M,164.9,M,,*6E,Forbidden
00387,$GPGGA,170844.00,5006.98975,N,01427.64758,E,1,08,11.9,245.5,M,164.9,M,,*6E,Forbidden
00388,$GPGGA,170844.00,5006.98975,N,01427.64758,E,1,08,8.1,245.5,M,22.7,M,,*63,Forbidden
00389,$GPGGA,170844.00,5006.98975,N,01427.64758,E,1,08,8.1,245.5,M,22.7,M,,*63,Forbidden
00390,$GPGGA,170900.00,5006.98975,N,01427.64758,E,1,08,11.9,245.5,M,164.8,M,,*6E,Forbidden
00391,$GPGGA,170900.00,5006.98975,N,01427.64758,E,1,08,11.9,245.5,M,164.8,M,,*6E,Forbidden
00392,$GPGGA,170900.00,5006.98975,N,01427.64758,E,1,08,8.1,245.5,M,24.0,M,,*63,Forbidden
00393,$GPGGA,170900.00,5006.98975,N,01427.64758,E,1,08,8.1,245.5,M,24.0,M,,*63,Forbidden
00394,$GPGGA,170917.00,5006.98975,N,01427.64758,E,1,08,11.9,245.5,M,165.1,M,,*60,Created
00395,$GPGGA,170917.00,5006.98975,N,01427.64758,E,1,08,11.9,245.5,M,165.1,M,,*60,Forbidden
00396,$GPGGA,170917.00,5006.98975,N,01427.64758,E,1,08,8.1,245.5,M,24.5,M,,*60,Forbidden
00397,$GPGGA,170917.00,5006.98975,N,01427.64758,E,1,08,8.1,245.5,M,24.5,M,,*60,Forbidden
00398,$GPGGA,170933.00,5006.98975,N,01427.64758,E,1,08,11.9,245.5,M,165.1,M,,*66,Created
00399,$GPGGA,170933.00,5006.98975,N,01427.64758,E,1,08,11.9,245.5,M,165.1,M,,*66,Forbidden
00400,$GPGGA,170933.00,5006.98975,N,01427.64758,E,1,08,8.1,245.5,M,23.9,M,,*6D,Forbidden
00401,$GPGGA,170933.00,5006.98975,N,01427.64758,E,1,08,8.1,245.5,M,23.9,M,,*6D,Forbidden
00402,$GPGGA,170949.00,5006.98975,N,01427.64758,E,1,08,11.9,245.5,M,165.1,M,,*6B,Created
00403,$GPGGA,170949.00,5006.98975,N,01427.64758,E,1,08,11.9,245.5,M,165.1,M,,*6B,Forbidden
00404,$GPGGA,170949.00,5006.98975,N,01427.64758,E,1,08,8.1,245.5,M,24.4,M,,*6A,Forbidden
00405,$GPGGA,170949.00,5006.98975,N,01427.64758,E,1,08,8.1,245.5,M,24.4,M,,*6A,Forbidden
00406,$GPGGA,171005.00,5006.98975,N,01427.64758,E,1,08,11.9,245.5,M,164.6,M,,*6D,Created
00407,$GPGGA,171005.00,5006.98975,N,01427.64758,E,1,08,11.9,245.5,M,164.6,M,,*6D,Forbidden
00408,$GPGGA,171005.00,5006.98975,N,01427.64758,E,1,08,8.2,245.5,M,26.1,M,,*6E,Forbidden
00409,$GPGGA,171005.00,5006.98975,N,01427.64758,E,1,08,8.2,245.5,M,26.1,M,,*6E,Forbidden
00410,$GPGGA,171021.00,5006.98975,N,01427.64758,E,1,08,11.9,245.5,M,165.1,M,,*6D,Created
00411,$GPGGA,171021.00,5006.98975,N,01427.64758,E,1,08,11.9,245.5,M,165.1,M,,*6D,Forbidden
00412,$GPGGA,171021.00,5006.98975,N,01427.64758,E,1,08,8.1,245.5,M,24.9,M,,*61,Forbidden
00413,$GPGGA,171021.00,5006.98975,N,01427.64758,E,1,08,8.1,245.5,M,24.9,M,,*61,Forbidden
00414,$GPGGA,171038.00,5006.98975,N,01427.64758,E,1,08,11.8,245.5,M,164.4,M,,*60,Created
00415,$GPGGA,171038.00,5006.98975,N,01427.64758,E,1,08,11.8,245.5,M,164.4,M,,*60,Forbidden
00416,$GPGGA,171038.00,5006.98975,N,01427.64758,E,1,08,8.1,245.5,M,24.2,M,,*62,Forbidden
00417,$GPGGA,171038.00,5006.98975,N,01427.64758,E,1,08,8.1,245.5,M,24.2,M,,*62,Forbidden
00418,$GPGGA,171054.00,5006.98975,N,01427.64758,E,1,08,11.9,245.5,M,164.9,M,,*66,Created
00419,$GPGGA,171054.00,5006.98975,N,01427.64758,E,1,08,11.9,245.5,M,164.9,M,,*66,Forbidden
00420,$GPGGA,171054.00,5006.98975,N,01427.64758,E,1,08,8.1,245.5,M,24.7,M,,*6D,Forbidden
00421,$GPGGA,171054.00,5006.98975,N,01427.64758,E,1,08,8.1,245.5,M,24.7,M,,*6D,Forbidden
00422,$GPGGA,171110.00,5006.98975,N,01427.64758,E,1,08,11.9,245.5,M,164.6,M,,*68,Created
00423,$GPGGA,171110.00,5006.98975,N,01427.64758,E,1,08,11.9,245.5,M,164.6,M,,*68,Forbidden
00424,$GPGGA,171110.00,5006.98975,N,01427.64758,E,1,08,8.1,245.5,M,25.7,M,,*6D,Forbidden
00425,$GPGGA,171110.00,5006.98975,N,01427.64758,E,1,08,8.1,245.5,M,25.7,M,,*6D,Forbidden
00426,$GPGGA,171126.00,5006.98975,N,01427.64758,E,1,08,11.9,245.5,M,164.8,M,,*63,Created
00427,$GPGGA,171126.00,5006.98975,N,01427.64758,E,1,08,11.9,245.5,M,164.8,M,,*63,Forbidden
00428,$GPGGA,171126.00,5006.98975,N,01427.64758,E,1,08,8.2,245.5,M,26.1,M,,*6E,Forbidden
00429,$GPGGA,171126.00,5006.98975,N,01427.64758,E,1,08,8.2,245.5,M,26.1,M,,*6E,Forbidden
00430,$GPGGA,171143.00,5006.98975,N,01427.64758,E,1,08,11.9,245.5,M,164.6,M,,*6E,Created
00431,$GPGGA,171143.00,5006.98975,N,01427.64758,E,1,08,11.9,245.5,M,164.6,M,,*6E,Forbidden
00432,$GPGGA,171143.00,5006.98975,N,01427.64758,E,1,08,8.1,245.5,M,24.9,M,,*64,Forbidden
00433,$GPGGA,171143.00,5006.98975,N,01427.64758,E,1,08,8.1,245.5,M,24.9,M,,*64,Forbidden
00434,$GPGGA,171159.00,5006.98975,N,01427.64758,E,1,08,11.9,245.5,M,164.9,M,,*6A,Created
00435,$GPGGA,171159.00,5006.98975,N,01427.64758,E,1,08,11.9,245.5,M,164.9,M,,*6A,Forbidden
00436,$GPGGA,171159.00,5006.98975,N,01427.64758,E,1,08,8.1,245.5,M,25.6,M,,*61,Forbidden
00437,$GPGGA,171159.00,5006.98975,N,01427.64758,E,1,08,8.1,245.5,M,25.6,M,,*61,Forbidden
00438,$GPGGA,171215.00,5006.98975,N,01427.64758,E,1,08,11.9,245.5,M,164.8,M,,*60,Conflict
00439,$GPGGA,171215.00,5006.98975,N,01427.64758,E,1,08,11.9,245.5,M,164.8,M,,*60,Forbidden
00440,$GPGGA,171215.00,5006.98975,N,01427.64758,E,1,08,8.2,245.5,M,26.1,M,,*6D,Forbidden
00441,$GPGGA,171215.00,5006.98975,N,01427.64758,E,1,08,8.2,245.5,M,26.1,M,,*6D,Forbidden
00442,$GPGGA,171231.00,5006.98975,N,01427.64758,E,1,08,11.8,245.5,M,164.2,M,,*6D,Created
00443,$GPGGA,171231.00,5006.98975,N,01427.64758,E,1,08,11.8,245.5,M,164.2,M,,*6D,Forbidden
00444,$GPGGA,171231.00,5006.98975,N,01427.64758,E,1,08,8.2,245.5,M,26.1,M,,*6B,Forbidden
00445,$GPGGA,171231.00,5006.98975,N,01427.64758,E,1,08,8.2,245.5,M,26.1,M,,*6B,Forbidden
00446,$GPGGA,171247.00,5006.98975,N,01427.64758,E,1,08,11.9,245.5,M,164.6,M,,*69,Created
00447,$GPGGA,171247.00,5006.98975,N,01427.64758,E,1,08,11.9,245.5,M,164.6,M,,*69,Forbidden
00448,$GPGGA,171247.00,5006.98975,N,01427.64758,E,1,08,8.2,245.5,M,26.4,M,,*6F,Forbidden
00449,$GPGGA,171247.00,5006.98975,N,01427.64758,E,1,08,8.2,245.5,M,26.4,M,,*6F,Forbidden
00450,$GPGGA,171304.00,5006.98975,N,01427.64758,E,1,08,11.8,245.5,M,164.2,M,,*6A,Created
00451,$GPGGA,171304.00,5006.98975,N,01427.64758,E,1,08,11.8,245.5,M,164.2,M,,*6A,Forbid