Entry_id,GPS_message_type,Time,Lat,Lat_dir,Lon,Lon_dir,GPS_equal,Num_sats,Horizontal_dil,Altitude,Altitude_units,Geo_sep,Geo_sep_units,Age_gps_data,Ref_station_id,Upload_status
00000,$GPGGA,081144.00,4943.04590,N,01405.86438,E,1,08,12.4,451.4,M,186.9,M,,*6A,Upload_error
00001,$GPGGA,081144.00,4943.04590,N,01405.86438,E,1,08,8.1,451.4,M,24.7,M,,*63,Upload_error
00002,$GPGGA,081144.00,4943.04590,N,01405.86438,E,1,08,8.1,451.4,M,24.7,M,,*63,Upload_error
00003,$GPGGA,081155.00,4943.04443,N,01405.86401,E,1,08,12.4,463.0,M,186.2,M,,*61,Upload_error
00004,$GPGGA,081155.00,4943.04443,N,01405.86401,E,1,08,12.4,463.0,M,186.2,M,,*61,Upload_error
00005,$GPGGA,081155.00,4943.04443,N,01405.86401,E,1,08,8.1,463.0,M,23.3,M,,*60,Upload_error
00006,$GPGGA,081155.00,4943.04443,N,01405.86401,E,1,08,8.1,463.0,M,23.3,M,,*60,Upload_error
00007,$GPGGA,081206.00,4943.04736,N,01405.86584,E,1,08,12.4,459.4,M,186.5,M,,*63,Upload_error
00008,$GPGGA,081206.00,4943.04736,N,01405.86584,E,1,08,12.4,459.4,M,186.5,M,,*63,Upload_error
00009,$GPGGA,081206.00,4943.04736,N,01405.86584,E,1,08,8.1,459.4,M,24.7,M,,*66,Upload_error
00010,$GPGGA,081206.00,4943.04736,N,01405.86584,E,1,08,8.1,459.4,M,24.7,M,,*66,Upload_error
00011,$GPGGA,081217.00,4943.04980,N,01405.86646,E,1,08,12.4,453.5,M,186.9,M,,*6A,Upload_error
00012,$GPGGA,081217.00,4943.04980,N,01405.86646,E,1,08,12.4,453.5,M,186.9,M,,*6A,Upload_error
00013,$GPGGA,081217.00,4943.04980,N,01405.86646,E,1,08,8.1,453.5,M,25.4,M,,*61,Upload_error
00014,$GPGGA,081217.00,4943.04980,N,01405.86646,E,1,08,8.1,453.5,M,25.4,M,,*61,Upload_error
00015,$GPGGA,081227.00,4943.05078,N,01405.86389,E,1,08,12.4,454.0,M,186.4,M,,*6F,Upload_error
00016,$GPGGA,081227.00,4943.05078,N,01405.86389,E,1,08,12.4,454.0,M,186.4,M,,*6F,Upload_error
00017,$GPGGA,081227.00,4943.05078,N,01405.86389,E,1,08,8.1,454.0,M,24.9,M,,*65,Upload_error
00018,$GPGGA,081227.00,4943.05078,N,01405.86389,E,1,08,8.1,454.0,M,24.9,M,,*65,Upload_error
00019,$GPGGA,081239.00,4943.04688,N,01405.86743,E,1,08,12.4,445.1,M,186.7,M,,*68,Upload_error
00020,$GPGGA,081239.00,4943.04688,N,01405.86743,E,1,08,12.4,445.1,M,186.7,M,,*68,Upload_error
00021,$GPGGA,081239.00,4943.04688,N,01405.86743,E,1,08,8.1,445.1,M,25.1,M,,*68,Upload_error
00022,$GPGGA,081239.00,4943.04688,N,01405.86743,E,1,08,8.1,445.1,M,25.1,M,,*68,Upload_error
00023,$GPGGA,081250.00,4943.04639,N,01405.86987,E,1,08,12.4,439.8,M,186.5,M,,*6B,Upload_error
00024,$GPGGA,081250.00,4943.04639,N,01405.86987,E,1,08,12.4,439.8,M,186.5,M,,*6B,Upload_error
00025,$GPGGA,081250.00,4943.04639,N,01405.86987,E,1,08,8.1,439.8,M,25.2,M,,*6A,Upload_error
00026,$GPGGA,081250.00,4943.04639,N,01405.86987,E,1,08,8.1,439.8,M,25.2,M,,*6A,Upload_error
00027,$GPGGA,081301.00,4943.04688,N,01405.86646,E,1,08,12.4,451.7,M,186.4,M,,*66,Upload_error
00028,$GPGGA,081301.00,4943.04688,N,01405.86646,E,1,08,12.4,451.7,M,186.4,M,,*66,Upload_error
00029,$GPGGA,081301.00,4943.04688,N,01405.86646,E,1,08,8.1,451.7,M,25.1,M,,*65,Upload_error
00030,$GPGGA,081301.00,4943.04688,N,01405.86646,E,1,08,8.1,451.7,M,25.1,M,,*65,Upload_error
00031,$GPGGA,081312.00,4943.04883,N,01405.86426,E,1,08,12.4,450.7,M,186.4,M,,*64,Upload_error
00032,$GPGGA,081312.00,4943.04883,N,01405.86426,E,1,08,12.4,450.7,M,186.4,M,,*64,Upload_error
00033,$GPGGA,081312.00,4943.04883,N,01405.86426,E,1,08,8.1,450.7,M,25.1,M,,*67,Upload_error
00034,$GPGGA,081312.00,4943.04883,N,01405.86426,E,1,08,8.1,450.7,M,25.1,M,,*67,Upload_error
00035,$GPGGA,081323.00,4943.04932,N,01405.86548,E,1,08,12.4,451.1,M,186.5,M,,*62,Upload_error
00036,$GPGGA,081323.00,4943.04932,N,01405.86548,E,1,08,12.4,451.1,M,186.5,M,,*62,Upload_error
00037,$GPGGA,081323.00,4943.04932,N,01405.86548,E,1,08,8.1,451.1,M,25.2,M,,*63,Upload_error
00038,$GPGGA,081323.00,4943.04932,N,01405.86548,E,1,08,8.1,451.1,M,25.2,M,,*63,Upload_error
00039,$GPGGA,081335.00,4943.04883,N,01405.86560,E,1,08,12.4,446.7,M,186.2,M,,*63,Upload_error
00040,$GPGGA,081335.00,4943.04883,N,01405.86560,E,1,08,12.4,446.7,M,186.2,M,,*63,Upload_error
00041,$GPGGA,081335.00,4943.04883,N,01405.86560,E,1,08,8.1,446.7,M,25.4,M,,*63,Upload_error
00042,$GPGGA,081335.00,4943.04883,N,01405.86560,E,1,08,8.1,446.7,M,25.4,M,,*63,Upload_error
00043,$GPGGA,081346.00,4943.04834,N,01405.86487,E,1,08,12.4,447.3,M,186.5,M,,*61,Upload_error
00044,$GPGGA,081346.00,4943.04834,N,01405.86487,E,1,08,12.4,447.3,M,186.5,M,,*61,Upload_error
00045,$GPGGA,081346.00,4943.04834,N,01405.86487,E,1,08,8.1,447.3,M,25.1,M,,*63,Upload_error
00046,$GPGGA,081346.00,4943.04834,N,01405.86487,E,1,08,8.1,447.3,M,25.1,M,,*63,Upload_error
00047,$GPGGA,081357.00,4943.04883,N,01405.86401,E,1,08,12.4,445.3,M,186.5,M,,*61,Upload_error
00048,$GPGGA,081357.00,4943.04883,N,01405.86401,E,1,08,12.4,445.3,M,186.5,M,,*61,Upload_error
00049,$GPGGA,081357.00,4943.04883,N,01405.86401,E,1,08,8.1,445.3,M,25.4,M,,*66,Upload_error
00050,$GPGGA,081357.00,4943.04883,N,01405.86401,E,1,08,8.1,445.3,M,25.4,M,,*66,Upload_error
00051,$GPGGA,081408.00,4943.05078,N,01405.86731,E,1,08,12.4,429.3,M,186.4,M,,*6A,Upload_error
00052,$GPGGA,081408.00,4943.05078,N,01405.86731,E,1,08,12.4,429.3,M,186.4,M,,*6A,Upload_error
00053,$GPGGA,081408.00,4943.05078,N,01405.86731,E,1,08,8.2,429.3,M,25.9,M,,*62,Upload_error
00054,$GPGGA,081408.00,4943.05078,N,01405.86731,E,1,08,8.2,429.3,M,25.9,M,,*62,Upload_error
00055,$GPGGA,081420.00,4943.05029,N,01405.86694,E,1,08,12.4,427.6,M,186.7,M,,*62,Upload_error
00056,$GPGGA,081420.00,4943.05029,N,01405.86694,E,1,08,12.4,427.6,M,186.7,M,,*62,Upload_error
00057,$GPGGA,081420.00,4943.05029,N,01405.86694,E,1,08,8.1,427.6,M,24.9,M,,*6B,Upload_error
00058,$GPGGA,081420.00,4943.05029,N,01405.86694,E,1,08,8.1,427.6,M,24.9,M,,*6B,Upload_error
00059,$GPGGA,081430.00,4943.05127,N,01405.86682,E,1,08,12.4,432.5,M,186.2,M,,*69,Upload_error
00060,$GPGGA,081430.00,4943.05127,N,01405.86682,E,1,08,12.4,432.5,M,186.2,M,,*69,Upload_error
00061,$GPGGA,081430.00,4943.05127,N,01405.86682,E,1,08,8.1,432.5,M,25.6,M,,*6B,Upload_error
00062,$GPGGA,081430.00,4943.05127,N,01405.86682,E,1,08,8.1,432.5,M,25.6,M,,*6B,Upload_error
00063,$GPGGA,081441.00,4943.05127,N,01405.86621,E,1,08,12.4,434.8,M,186.7,M,,*68,Created
00064,$GPGGA,081441.00,4943.05127,N,01405.86621,E,1,08,12.4,434.8,M,186.7,M,,*68,Forbidden
00065,$GPGGA,081441.00,4943.05127,N,01405.86621,E,1,08,8.1,434.8,M,25.6,M,,*6F,Forbidden
00066,$GPGGA,081441.00,4943.05127,N,01405.86621,E,1,08,8.1,434.8,M,25.6,M,,*6F,Forbidden
00067,$GPGGA,081452.00,4943.05078,N,01405.86572,E,1,08,12.4,438.2,M,186.5,M,,*60,Created
00068,$GPGGA,081452.00,4943.05078,N,01405.86572,E,1,08,12.4,438.2,M,186.5,M,,*60,Forbidden
00069,$GPGGA,081452.00,4943.05078,N,01405.86572,E,1,08,8.2,438.2,M,25.9,M,,*69,Forbidden
00070,$GPGGA,081452.00,4943.05078,N,01405.86572,E,1,08,8.2,438.2,M,25.9,M,,*69,Forbidden
00071,$GPGGA,081503.00,4943.05078,N,01405.86353,E,1,08,12.4,434.3,M,186.7,M,,*6F,Created
00072,$GPGGA,081503.00,4943.05078,N,01405.86353,E,1,08,12.4,434.3,M,186.7,M,,*6F,Forbidden
00073,$GPGGA,081503.00,4943.05078,N,01405.86353,E,1,08,8.1,434.3,M,25.7,M,,*69,Forbidden
00074,$GPGGA,081503.00,4943.05078,N,01405.86353,E,1,08,8.1,434.3,M,25.7,M,,*69,Forbidden
00075,$GPGGA,081515.00,4943.05078,N,01405.86340,E,1,08,12.5,437.3,M,187.0,M,,*6E,Created
00076,$GPGGA,081515.00,4943.05078,N,01405.86340,E,1,08,12.5,437.3,M,187.0,M,,*6E,Forbidden
00077,$GPGGA,081515.00,4943.05078,N,01405.86340,E,1,08,8.2,437.3,M,26.8,M,,*60,Forbidden
00078,$GPGGA,081515.00,4943.05078,N,01405.86340,E,1,08,8.2,437.3,M,26.8,M,,*60,Forbidden
00079,$GPGGA,081526.00,4943.04932,N,01405.86218,E,1,08,12.4,440.1,M,186.0,M,,*66,Created
00080,$GPGGA,081526.00,4943.04932,N,01405.86218,E,1,08,12.4,440.1,M,186.0,M,,*66,Forbidden
00081,$GPGGA,081526.00,4943.04932,N,01405.86218,E,1,08,8.1,440.1,M,25.6,M,,*66,Forbidden
00082,$GPGGA,081526.00,4943.04932,N,01405.86218,E,1,08,8.1,440.1,M,25.6,M,,*66,Forbidden
00083,$GPGGA,081537.00,4943.05078,N,01405.86353,E,1,08,12.5,440.4,M,187.2,M,,*69,Created
00084,$GPGGA,081537.00,4943.05078,N,01405.86353,E,1,08,12.5,440.4,M,187.2,M,,*69,Forbidden
00085,$GPGGA,081537.00,4943.05078,N,01405.86353,E,1,08,8.2,440.4,M,26.6,M,,*6B,Forbidden
00086,$GPGGA,081537.00,4943.05078,N,01405.86353,E,1,08,8.2,440.4,M,26.6,M,,*6B,Forbidden
00087,$GPGGA,081548.00,4943.05273,N,01405.86475,E,1,08,12.4,435.4,M,186.2,M,,*69,Created
00088,$GPGGA,081548.00,4943.05273,N,01405.86475,E,1,08,12.4,435.4,M,186.2,M,,*69,Forbidden
00089,$GPGGA,081548.00,4943.05273,N,01405.86475,E,1,08,8.2,435.4,M,26.1,M,,*6C,Forbidden
00090,$GPGGA,081548.00,4943.05273,N,01405.86475,E,1,08,8.2,435.4,M,26.1,M,,*6C,Forbidden
00091,$GPGGA,081559.00,4943.05078,N,01405.86462,E,1,08,12.4,444.8,M,186.5,M,,*6B,Created
00092,$GPGGA,081559.00,4943.05078,N,01405.86462,E,1,08,12.4,444.8,M,186.5,M,,*6B,Forbidden
00093,$GPGGA,081559.00,4943.05078,N,01405.86462,E,1,08,8.2,444.8,M,25.9,M,,*62,Forbidden
00094,$GPGGA,081559.00,4943.05078,N,01405.86462,E,1,08,8.2,444.8,M,25.9,M,,*62,Forbidden
00095,$GPGGA,081610.00,4943.04834,N,01405.86438,E,1,08,12.4,447.9,M,186.4,M,,*68,Created
00096,$GPGGA,081610.00,4943.04834,N,01405.86438,E,1,08,12.4,447.9,M,186.4,M,,*68,Forbidden
00097,$GPGGA,081621.00,4943.04639,N,01405.86487,E,1,08,12.4,437.7,M,186.2,M,,*62,Created
00098,$GPGGA,081621.00,4943.04639,N,01405.86487,E,1,08,12.4,437.7,M,186.2,M,,*62,Forbidden
00099,$GPGGA,081621.00,4943.04639,N,01405.86487,E,1,08,8.2,437.7,M,26.1,M,,*67,Forbidden
00100,$GPGGA,081621.00,4943.04639,N,01405.86487,E,1,08,8.2,437.7,M,26.1,M,,*67,Forbidden
00101,$GPGGA,081632.00,4943.04492,N,01405.86548,E,1,08,12.4,440.7,M,186.0,M,,*63,Created
00102,$GPGGA,081632.00,4943.04492,N,01405.86548,E,1,08,12.4,440.7,M,186.0,M,,*63,Forbidden
00103,$GPGGA,081632.00,4943.04492,N,01405.86548,E,1,08,8.1,440.7,M,25.6,M,,*63,Forbidden
00104,$GPGGA,081632.00,4943.04492,N,01405.86548,E,1,08,8.1,440.7,M,25.6,M,,*63,Forbidden
00105,$GPGGA,081643.00,4943.04443,N,01405.86597,E,1,08,12.4,441.7,M,186.2,M,,*68,Created
00106,$GPGGA,081643.00,4943.04443,N,01405.86597,E,1,08,12.4,441.7,M,186.2,M,,*68,Forbidden
00107,$GPGGA,081643.00,4943.04443,N,01405.86597,E,1,08,8.2,441.7,M,26.9,M,,*65,Forbidden
00108,$GPGGA,081643.00,4943.04443,N,01405.86597,E,1,08,8.2,441.7,M,26.9,M,,*65,Forbidden
00109,$GPGGA,081655.00,4943.04639,N,01405.86536,E,1,08,12.4,441.9,M,186.2,M,,*65,Created
00110,$GPGGA,081655.00,4943.04639,N,01405.86536,E,1,08,12.4,441.9,M,186.2,M,,*65,Forbidden
00111,$GPGGA,081655.00,4943.04639,N,01405.86536,E,1,08,8.1,441.9,M,25.7,M,,*66,Forbidden
00112,$GPGGA,081655.00,4943.04639,N,01405.86536,E,1,08,8.1,441.9,M,25.7,M,,*66,Forbidden
00113,$GPGGA,081706.00,4943.04736,N,01405.86743,E,1,08,12.4,441.5,M,186.0,M,,*62,Created
00114,$GPGGA,081706.00,4943.04736,N,01405.86743,E,1,08,12.4,441.5,M,186.0,M,,*62,Forbidden
00115,$GPGGA,081706.00,4943.04736,N,01405.86743,E,1,08,8.2,441.5,M,27.5,M,,*60,Forbidden
00116,$GPGGA,081706.00,4943.04736,N,01405.86743,E,1,08,8.2,441.5,M,27.5,M,,*60,Forbidden
00117,$GPGGA,081717.00,4943.04443,N,01405.87048,E,1,08,12.4,438.9,M,186.2,M,,*6E,Created
00118,$GPGGA,081717.00,4943.04443,N,01405.87048,E,1,08,12.4,438.9,M,186.2,M,,*6E,Forbidden
00119,$GPGGA,081717.00,4943.04443,N,01405.87048,E,1,08,8.2,438.9,M,27.1,M,,*6A,Forbidden
00120,$GPGGA,081717.00,4943.04443,N,01405.87048,E,1,08,8.2,438.9,M,27.1,M,,*6A,Forbidden
00121,$GPGGA,081728.00,4943.04443,N,01405.87268,E,1,08,12.4,438.9,M,186.0,M,,*60,Created
00122,$GPGGA,081728.00,4943.04443,N,01405.87268,E,1,08,12.4,438.9,M,186.0,M,,*60,Forbidden
00123,$GPGGA,081728.00,4943.04443,N,01405.87268,E,1,08,8.2,438.9,M,26.8,M,,*6E,Forbidden
00124,$GPGGA,081728.00,4943.04443,N,01405.87268,E,1,08,8.2,438.9,M,26.8,M,,*6E,Forbidden
00125,$GPGGA,081739.00,4943.04688,N,01405.87122,E,1,08,12.4,439.2,M,186.2,M,,*60,Created
00126,$GPGGA,081739.00,4943.04688,N,01405.87122,E,1,08,12.4,439.2,M,186.2,M,,*60,Forbidden
00127,$GPGGA,081739.00,4943.04688,N,01405.87122,E,1,08,8.2,439.2,M,27.1,M,,*64,Forbidden
00128,$GPGGA,081739.00,4943.04688,N,01405.87122,E,1,08,8.2,439.2,M,27.1,M,,*64,Forbidden
00129,$GPGGA,081751.00,4943.04688,N,01405.87292,E,1,08,12.4,435.0,M,185.7,M,,*6E,Created
00130,$GPGGA,081751.00,4943.04688,N,01405.87292,E,1,08,12.4,435.0,M,185.7,M,,*6E,Forbidden
00131,$GPGGA,081751.00,4943.04688,N,01405.87292,E,1,08,8.2,435.0,M,27.3,M,,*6E,Forbidden
00132,$GPGGA,081751.00,4943.04688,N,01405.87292,E,1,08,8.2,435.0,M,27.3,M,,*6E,Forbidden
00133,$GPGGA,081801.00,4943.04541,N,01405.87329,E,1,08,12.4,436.8,M,186.0,M,,*6C,Created
00134,$GPGGA,081801.00,4943.04541,N,01405.87329,E,1,08,12.4,436.8,M,186.0,M,,*6C,Forbidden
00135,$GPGGA,081801.00,4943.04541,N,01405.87329,E,1,08,8.2,436.8,M,26.4,M,,*6E,Forbidden
00136,$GPGGA,081801.00,4943.04541,N,01405.87329,E,1,08,8.2,436.8,M,26.4,M,,*6E,Forbidden
00137,$GPGGA,081812.00,4943.04492,N,01405.87256,E,1,08,12.4,430.1,M,186.0,M,,*67,Created
00138,$GPGGA,081812.00,4943.04492,N,01405.87256,E,1,08,12.4,430.1,M,186.0,M,,*67,Forbidden
00139,$GPGGA,081812.00,4943.04492,N,01405.87256,E,1,08,8.2,430.1,M,26.4,M,,*65,Forbidden
00140,$GPGGA,081812.00,4943.04492,N,01405.87256,E,1,08,8.2,430.1,M,26.4,M,,*65,Forbidden
00141,$GPGGA,081823.00,4943.04443,N,01405.86877,E,1,08,12.4,419.9,M,185.7,M,,*66,Created
00142,$GPGGA,081823.00,4943.04443,N,01405.86877,E,1,08,12.4,419.9,M,185.7,M,,*66,Forbidden
00143,$GPGGA,081823.00,4943.04443,N,01405.86877,E,1,08,8.2,419.9,M,26.8,M,,*6C,Forbidden
00144,$GPGGA,081823.00,4943.04443,N,01405.86877,E,1,08,8.2,419.9,M,26.8,M,,*6C,Forbidden
00145,$GPGGA,081834.00,4943.04395,N,01405.86609,E,1,08,12.4,410.0,M,186.0,M,,*6F,Created
00146,$GPGGA,081834.00,4943.04395,N,01405.86609,E,1,08,12.4,410.0,M,186.0,M,,*6F,Forbidden
00147,$GPGGA,081834.00,4943.04395,N,01405.86609,E,1,08,8.2,410.0,M,28.0,M,,*67,Forbidden
00148,$GPGGA,081834.00,4943.04395,N,01405.86609,E,1,08,8.2,410.0,M,28.0,M,,*67,Forbidden
00149,$GPGGA,081846.00,4943.04346,N,01405.86609,E,1,08,12.4,407.6,M,185.7,M,,*60,Created
00150,$GPGGA,081846.00,4943.04346,N,01405.86609,E,1,08,12.4,407.6,M,185.7,M,,*60,Forbidden
00151,$GPGGA,081846.00,4943.04346,N,01405.86609,E,1,08,8.2,407.6,M,27.5,M,,*66,Forbidden
00152,$GPGGA,081846.00,4943.04346,N,01405.86609,E,1,08,8.2,407.6,M,27.5,M,,*66,Forbidden
00153,$GPGGA,081857.00,4943.04443,N,01405.86829,E,1,09,12.4,415.8,M,186.2,M,,*64,Created
00154,$GPGGA,081857.00,4943.04443,N,01405.86829,E,1,09,12.4,415.8,M,186.2,M,,*64,Forbidden
00155,$GPGGA,081857.00,4943.04443,N,01405.86829,E,1,09,8.2,415.8,M,27.8,M,,*69,Forbidden
00156,$GPGGA,081857.00,4943.04443,N,01405.86829,E,1,09,8.2,415.8,M,27.8,M,,*69,Forbidden
00157,$GPGGA,081908.00,4943.04639,N,01405.87061,E,1,09,12.4,425.2,M,186.2,M,,*6C,Created
00158,$GPGGA,081908.00,4943.04639,N,01405.87061,E,1,09,12.4,425.2,M,186.2,M,,*6C,Forbidden
00159,$GPGGA,081908.00,4943.04639,N,01405.87061,E,1,09,8.2,425.2,M,27.1,M,,*68,Forbidden
00160,$GPGGA,081908.00,4943.04639,N,01405.87061,E,1,09,8.2,425.2,M,27.1,M,,*68,Forbidden
00161,$GPGGA,081919.00,4943.04932,N,01405.87317,E,1,09,12.4,435.6,M,185.7,M,,*69,Created
00162,$GPGGA,081919.00,4943.04932,N,01405.87317,E,1,09,12.4,435.6,M,185.7,M,,*69,Forbidden
00163,$GPGGA,081919.00,4943.04932,N,01405.87317,E,1,09,8.2,435.6,M,27.3,M,,*69,Forbidden
00164,$GPGGA,081919.00,4943.04932,N,01405.87317,E,1,09,8.2,435.6,M,27.3,M,,*69,Forbidden
00165,$GPGGA,081931.00,4943.05127,N,01405.87219,E,1,08,12.4,435.8,M,185.5,M,,*6C,Created
00166,$GPGGA,081931.00,4943.05127,N,01405.87219,E,1,08,12.4,435.8,M,185.5,M,,*6C,Forbidden
00167,$GPGGA,081931.00,4943.05127,N,01405.87219,E,1,08,8.2,435.8,M,28.0,M,,*62,Forbidden
00168,$GPGGA,081931.00,4943.05127,N,01405.87219,E,1,08,8.2,435.8,M,28.0,M,,*62,Forbidden
00169,$GPGGA,081941.00,4943.05273,N,01405.87085,E,1,09,12.4,434.2,M,185.3,M,,*62,Created
00170,$GPGGA,081941.00,4943.05273,N,01405.87085,E,1,09,12.4,434.2,M,185.3,M,,*62,Forbidden
00171,$GPGGA,081941.00,4943.05273,N,01405.87085,E,1,09,8.2,434.2,M,28.1,M,,*6B,Forbidden
00172,$GPGGA,081941.00,4943.05273,N,01405.87085,E,1,09,8.2,434.2,M,28.1,M,,*6B,Forbidden
00173,$GPGGA,081952.00,4943.05273,N,01405.86938,E,1,09,12.4,436.6,M,185.5,M,,*6E,Created
00174,$GPGGA,081952.00,4943.05273,N,01405.86938,E,1,09,12.4,436.6,M,185.5,M,,*6E,Forbidden
00175,$GPGGA,082003.00,4943.05322,N,01405.86926,E,1,09,12.4,441.7,M,185.5,M,,*6B,Created
00176,$GPGGA,082003.00,4943.05322,N,01405.86926,E,1,09,12.4,441.7,M,185.5,M,,*6B,Forbidden
00177,$GPGGA,082014.00,4943.05518,N,01405.87073,E,1,09,12.4,453.9,M,186.0,M,,*61,Created
00178,$GPGGA,082014.00,4943.05518,N,01405.87073,E,1,09,12.4,453.9,M,186.0,M,,*61,Forbidden
00179,$GPGGA,082026.00,4943.05420,N,01405.87048,E,1,09,12.4,451.3,M,185.5,M,,*6C,Created
00180,$GPGGA,082026.00,4943.05420,N,01405.87048,E,1,09,12.4,451.3,M,185.5,M,,*6C,Forbidden
00181,$GPGGA,082026.00,4943.05420,N,01405.87048,E,1,09,8.2,451.3,M,26.8,M,,*64,Forbidden
00182,$GPGGA,082026.00,4943.05420,N,01405.87048,E,1,09,8.2,451.3,M,26.8,M,,*64,Forbidden
00183,$GPGGA,082037.00,4943.05273,N,01405.87012,E,1,09,12.4,449.5,M,186.0,M,,*6A,Created
00184,$GPGGA,082037.00,4943.05273,N,01405.87012,E,1,09,12.4,449.5,M,186.0,M,,*6A,Forbidden
00185,$GPGGA,082037.00,4943.05273,N,01405.87012,E,1,09,8.2,449.5,M,28.1,M,,*63,Forbidden
00186,$GPGGA,082037.00,4943.05273,N,01405.87012,E,1,09,8.2,449.5,M,28.1,M,,*63,Forbidden
00187,$GPGGA,082048.00,4943.05127,N,01405.87000,E,1,09,12.4,445.6,M,186.0,M,,*6C,Created
00188,$GPGGA,082048.00,4943.05127,N,01405.87000,E,1,09,12.4,445.6,M,186.0,M,,*6C,Forbidden
00189,$GPGGA,082048.00,4943.05127,N,01405.87000,E,1,09,8.2,445.6,M,27.8,M,,*63,Forbidden
00190,$GPGGA,082048.00,4943.05127,N,01405.87000,E,1,09,8.2,445.6,M,27.8,M,,*63,Forbidden
00191,$GPGGA,082059.00,4943.04932,N,01405.87158,E,1,09,12.4,449.9,M,185.7,M,,*6A,Created
00192,$GPGGA,082059.00,4943.04932,N,01405.87158,E,1,09,12.4,449.9,M,185.7,M,,*6A,Forbidden
00193,$GPGGA,082059.00,4943.04932,N,01405.87158,E,1,09,8.2,449.9,M,27.8,M,,*61,Forbidden
00194,$GPGGA,082059.00,4943.04932,N,01405.87158,E,1,09,8.2,449.9,M,27.8,M,,*61,Forbidden
00195,$GPGGA,082110.00,4943.04883,N,01405.87097,E,1,09,12.4,446.0,M,186.0,M,,*6D,Created
00196,$GPGGA,082110.00,4943.04883,N,01405.87097,E,1,09,12.4,446.0,M,186.0,M,,*6D,Forbidden
00197,$GPGGA,082110.00,4943.04883,N,01405.87097,E,1,09,8.2,446.0,M,28.3,M,,*66,Forbidden
00198,$GPGGA,082110.00,4943.04883,N,01405.87097,E,1,09,8.2,446.0,M,28.3,M,,*66,Forbidden
00199,$GPGGA,082121.00,4943.04688,N,01405.87146,E,1,09,12.4,445.1,M,185.8,M,,*6E,Created
00200,$GPGGA,082121.00,4943.04688,N,01405.87146,E,1,09,12.4,445.1,M,185.8,M,,*6E,Forbidden
00201,$GPGGA,082121.00,4943.04688,N,01405.87146,E,1,09,8.2,445.1,M,26.9,M,,*6A,Forbidden
00202,$GPGGA,082121.00,4943.04688,N,01405.87146,E,1,09,8.2,445.1,M,26.9,M,,*6A,Forbidden
00203,$GPGGA,082132.00,4943.04541,N,01405.87158,E,1,09,12.4,443.6,M,186.0,M,,*6F,Created
00204,$GPGGA,082132.00,4943.04541,N,01405.87158,E,1,09,12.4,443.6,M,186.0,M,,*6F,Forbidden
00205,$GPGGA,082132.00,4943.04541,N,01405.87158,E,1,09,8.2,443.6,M,27.3,M,,*6B,Forbidden
00206,$GPGGA,082132.00,4943.04541,N,01405.87158,E,1,09,8.2,443.6,M,27.3,M,,*6B,Forbidden
00207,$GPGGA,082143.00,4943.04346,N,01405.87036,E,1,09,12.4,441.2,M,185.8,M,,*6C,Created
00208,$GPGGA,082143.00,4943.04346,N,01405.87036,E,1,09,12.4,441.2,M,185.8,M,,*6C,Forbidden
00209,$GPGGA,082143.00,4943.04346,N,01405.87036,E,1,09,8.2,441.2,M,26.9,M,,*68,Forbidden
00210,$GPGGA,082143.00,4943.04346,N,01405.87036,E,1,09,8.2,441.2,M,26.9,M,,*68,Forbidden
00211,$GPGGA,082154.00,4943.04150,N,01405.86926,E,1,09,12.4,436.9,M,185.8,M,,*6D,Created
00212,$GPGGA,082154.00,4943.04150,N,01405.86926,E,1,09,12.4,436.9,M,185.8,M,,*6D,Forbidden
00213,$GPGGA,082154.00,4943.04150,N,01405.86926,E,1,09,8.2,436.9,M,28.7,M,,*69,Forbidden
00214,$GPGGA,082154.00,4943.04150,N,01405.86926,E,1,09,8.2,436.9,M,28.7,M,,*69,Forbidden
00215,$GPGGA,082206.00,4943.04004,N,01405.86938,E,1,09,12.4,435.0,M,185.8,M,,*6C,Created
00216,$GPGGA,082206.00,4943.04004,N,01405.86938,E,1,09,12.4,435.0,M,185.8,M,,*6C,Forbidden
00217,$GPGGA,082206.00,4943.04004,N,01405.86938,E,1,09,8.2,435.0,M,28.1,M,,*6E,Forbidden
00218,$GPGGA,082206.00,4943.04004,N,01405.86938,E,1,09,8.2,435.0,M,28.1,M,,*6E,Forbidden
00219,$GPGGA,082217.00,4943.03906,N,01405.86902,E,1,09,12.4,433.8,M,185.7,M,,*68,Created
00220,$GPGGA,082217.00,4943.03906,N,01405.86902,E,1,09,12.4,433.8,M,185.7,M,,*68,Forbidden
00221,$GPGGA,082217.00,4943.03906,N,01405.86902,E,1,09,8.2,433.8,M,27.5,M,,*6E,Forbidden
00222,$GPGGA,082217.00,4943.03906,N,01405.86902,E,1,09,8.2,433.8,M,27.5,M,,*6E,Forbidden
00223,$GPGGA,082228.00,4943.04053,N,01405.86914,E,1,09,12.4,432.6,M,185.7,M,,*62,Created
00224,$GPGGA,082228.00,4943.04053,N,01405.86914,E,1,09,12.4,432.6,M,185.7,M,,*62,Forbidden
00225,$GPGGA,082228.00,4943.04053,N,01405.86914,E,1,09,8.2,432.6,M,27.3,M,,*62,Forbidden
00226,$GPGGA,082228.00,4943.04053,N,01405.86914,E,1,09,8.2,432.6,M,27.3,M,,*62,Forbidden
00227,$GPGGA,082239.00,4943.04102,N,01405.86951,E,1,09,12.4,431.1,M,185.3,M,,*66,Created
00228,$GPGGA,082239.00,4943.04102,N,01405.86951,E,1,09,12.4,431.1,M,185.3,M,,*66,Forbidden
00229,$GPGGA,082239.00,4943.04102,N,01405.86951,E,1,09,8.2,431.1,M,28.5,M,,*6B,Forbidden
00230,$GPGGA,082239.00,4943.04102,N,01405.86951,E,1,09,8.2,431.1,M,28.5,M,,*6B,Forbidden
00231,$GPGGA,082250.00,4943.04150,N,01405.86951,E,1,09,12.4,428.7,M,185.2,M,,*61,Created
00232,$GPGGA,082250.00,4943.04150,N,01405.86951,E,1,09,12.4,428.7,M,185.2,M,,*61,Forbidden
00233,$GPGGA,082250.00,4943.04150,N,01405.86951,E,1,09,8.2,428.7,M,26.9,M,,*6F,Forbidden
00234,$GPGGA,082250.00,4943.04150,N,01405.86951,E,1,09,8.2,428.7,M,26.9,M,,*6F,Forbidden
00235,$GPGGA,082301.00,4943.04346,N,01405.86951,E,1,09,12.4,425.9,M,185.2,M,,*62,Created
00236,$GPGGA,082301.00,4943.04346,N,01405.86951,E,1,09,12.4,425.9,M,185.2,M,,*62,Forbidden
00237,$GPGGA,082301.00,4943.04346,N,01405.86951,E,1,09,8.2,425.9,M,28.3,M,,*68,Forbidden
00238,$GPGGA,082301.00,4943.04346,N,01405.86951,E,1,09,8.2,425.9,M,28.3,M,,*68,Forbidden
00239,$GPGGA,082312.00,4943.04346,N,01405.86768,E,1,09,12.4,426.7,M,185.3,M,,*68,Created
00240,$GPGGA,082312.00,4943.04346,N,01405.86768,E,1,09,12.4,426.7,M,185.3,M,,*68,Forbidden
00241,$GPGGA,082312.00,4943.04346,N,01405.86768,E,1,09,8.2,426.7,M,28.5,M,,*65,Forbidden
00242,$GPGGA,082312.00,4943.04346,N,01405.86768,E,1,09,8.2,426.7,M,28.5,M,,*65,Forbidden
00243,$GPGGA,082323.00,4943.04248,N,01405.86548,E,1,09,12.4,428.8,M,185.5,M,,*62,Created
00244,$GPGGA,082323.00,4943.04248,N,01405.86548,E,1,09,12.4,428.8,M,185.5,M,,*62,Forbidden
00245,$GPGGA,082323.00,4943.04248,N,01405.86548,E,1,09,8.2,428.8,M,28.0,M,,*6C,Forbidden
00246,$GPGGA,082323.00,4943.04248,N,01405.86548,E,1,09,8.2,428.8,M,28.0,M,,*6C,Forbidden
00247,$GPGGA,082334.00,4943.04541,N,01405.86707,E,1,09,12.4,425.7,M,185.8,M,,*6C,Created
00248,$GPGGA,082334.00,4943.04541,N,01405.86707,E,1,09,12.4,425.7,M,185.8,M,,*6C,Forbidden
00249,$GPGGA,082334.00,4943.04541,N,01405.86707,E,1,09,8.2,425.7,M,27.8,M,,*68,Forbidden
00250,$GPGGA,082334.00,4943.04541,N,01405.86707,E,1,09,8.2,425.7,M,27.8,M,,*68,Forbidden
00251,$GPGGA,082345.00,4943.05029,N,01405.86853,E,1,09,12.4,426.8,M,185.5,M,,*6F,Created
00252,$GPGGA,082345.00,4943.05029,N,01405.86853,E,1,09,12.4,426.8,M,185.5,M,,*6F,Forbidden
00253,$GPGGA,082357.00,4943.05322,N,01405.86914,E,1,09,12.4,428.3,M,185.3,M,,*65,Created
00254,$GPGGA,082357.00,4943.05322,N,01405.86914,E,1,09,12.4,428.3,M,185.3,M,,*65,Forbidden
00255,$GPGGA,082357.00,4943.05322,N,01405.86914,E,1,09,8.2,428.3,M,27.8,M,,*6A,Forbidden
00256,$GPGGA,082357.00,4943.05322,N,01405.86914,E,1,09,8.2,428.3,M,27.8,M,,*6A,Forbidden
00257,$GPGGA,082408.00,4943.05518,N,01405.86963,E,1,09,12.4,427.5,M,185.7,M,,*6A,Created
00258,$GPGGA,082408.00,4943.05518,N,01405.86963,E,1,09,12.4,427.5,M,185.7,M,,*6A,Forbidden
00259,$GPGGA,082408.00,4943.05518,N,01405.86963,E,1,09,8.2,427.5,M,28.7,M,,*61,Forbidden
00260,$GPGGA,082408.00,4943.05518,N,01405.86963,E,1,09,8.2,427.5,M,28.7,M,,*61,Forbidden
00261,$GPGGA,082419.00,4943.05371,N,01405.86877,E,1,09,12.4,431.2,M,185.5,M,,*65,Created
00262,$GPGGA,082419.00,4943.05371,N,01405.86877,E,1,09,12.4,431.2,M,185.5,M,,*65,Forbidden
00263,$GPGGA,082419.00,4943.05371,N,01405.86877,E,1,09,8.2,431.2,M,27.8,M,,*6C,Forbidden
00264,$GPGGA,082419.00,4943.05371,N,01405.86877,E,1,09,8.2,431.2,M,27.8,M,,*6C,Forbidden
00265,$GPGGA,082430.00,4943.05322,N,01405.86609,E,1,09,12.4,440.6,M,185.5,M,,*6D,Created
00266,$GPGGA,082430.00,4943.05322,N,01405.86609,E,1,09,12.4,440.6,M,185.5,M,,*6D,Forbidden
00267,$GPGGA,082430.00,4943.05322,N,01405.86609,E,1,09,8.2,440.6,M,28.7,M,,*64,Forbidden
00268,$GPGGA,082430.00,4943.05322,N,01405.86609,E,1,09,8.2,440.6,M,28.7,M,,*64,Forbidden
00269,$GPGGA,082441.00,4943.05225,N,01405.86890,E,1,09,12.4,431.8,M,185.3,M,,*6D,Created
00270,$GPGGA,082441.00,4943.05225,N,01405.86890,E,1,09,12.4,431.8,M,185.3,M,,*6D,Forbidden
00271,$GPGGA,082441.00,4943.05225,N,01405.86890,E,1,09,8.2,431.8,M,29.2,M,,*66,Forbidden
00272,$GPGGA,082441.00,4943.05225,N,01405.86890,E,1,09,8.2,431.8,M,29.2,M,,*66,Forbidden
00273,$GPGGA,082452.00,4943.05176,N,01405.87061,E,1,09,12.4,429.9,M,185.2,M,,*64,Created
00274,$GPGGA,082452.00,4943.05176,N,01405.87061,E,1,09,12.4,429.9,M,185.2,M,,*64,Forbidden
00275,$GPGGA,082452.00,4943.05176,N,01405.87061,E,1,09,8.2,429.9,M,28.0,M,,*6D,Forbidden
00276,$GPGGA,082452.00,4943.05176,N,01405.87061,E,1,09,8.2,429.9,M,28.0,M,,*6D,Forbidden
00277,$GPGGA,082503.00,4943.05029,N,01405.87109,E,1,09,12.4,430.6,M,185.3,M,,*63,Created
00278,$GPGGA,082503.00,4943.05029,N,01405.87109,E,1,09,12.4,430.6,M,185.3,M,,*63,Forbidden
00279,$GPGGA,082503.00,4943.05029,N,01405.87109,E,1,09,8.2,430.6,M,28.0,M,,*6B,Forbidden
00280,$GPGGA,082503.00,4943.05029,N,01405.87109,E,1,09,8.2,430.6,M,28.0,M,,*6B,Forbidden
00281,$GPGGA,082514.00,4943.04980,N,01405.87231,E,1,09,12.4,429.2,M,185.2,M,,*6B,Created
00282,$GPGGA,082514.00,4943.04980,N,01405.87231,E,1,09,12.4,429.2,M,185.2,M,,*6B,Forbidden
00283,$GPGGA,082514.00,4943.04980,N,01405.87231,E,1,09,8.2,429.2,M,29.2,M,,*61,Forbidden
00284,$GPGGA,082514.00,4943.04980,N,01405.87231,E,1,09,8.2,429.2,M,29.2,M,,*61,Forbidden
00285,$GPGGA,082525.00,4943.04932,N,01405.87219,E,1,09,12.4,431.5,M,185.3,M,,*65,Created
00286,$GPGGA,082525.00,4943.04932,N,01405.87219,E,1,09,12.4,431.5,M,185.3,M,,*65,Forbidden
00287,$GPGGA,082525.00,4943.04932,N,01405.87219,E,1,09,8.2,431.5,M,28.0,M,,*6D,Forbidden
00288,$GPGGA,082525.00,4943.04932,N,01405.87219,E,1,09,8.2,431.5,M,28.0,M,,*6D,Forbidden
00289,$GPGGA,082537.00,4943.05127,N,01405.86975,E,1,09,12.4,432.2,M,185.3,M,,*6F,Created
00290,$GPGGA,082537.00,4943.05127,N,01405.86975,E,1,09,12.4,432.2,M,185.3,M,,*6F,Forbidden
00291,$GPGGA,082537.00,4943.05127,N,01405.86975,E,1,09,8.2,432.2,M,29.3,M,,*65,Forbidden
00292,$GPGGA,082537.00,4943.05127,N,01405.86975,E,1,09,8.2,432.2,M,29.3,M,,*65,Forbidden
00293,$GPGGA,082548.00,4943.05176,N,01405.86792,E,1,09,12.4,429.6,M,185.2,M,,*6B,Created
00294,$GPGGA,082548.00,4943.05176,N,01405.86792,E,1,09,12.4,429.6,M,185.2,M,,*6B,Forbidden
00295,$GPGGA,082548.00,4943.05176,N,01405.86792,E,1,09,8.2,429.6,M,28.5,M,,*67,Forbidden
00296,$GPGGA,082548.00,4943.05176,N,01405.86792,E,1,09,8.2,429.6,M,28.5,M,,*67,Forbidden
00297,$GPGGA,082559.00,4943.05078,N,01405.86768,E,1,09,12.4,435.4,M,185.0,M,,*6C,Created
00298,$GPGGA,082559.00,4943.05078,N,01405.86768,E,1,09,12.4,435.4,M,185.0,M,,*6C,Forbidden
00299,$GPGGA,082559.00,4943.05078,N,01405.86768,E,1,09,8.2,435.4,M,28.3,M,,*64,Forbidden
00300,$GPGGA,082559.00,4943.05078,N,01405.86768,E,1,09,8.2,435.4,M,28.3,M,,*64,Forbidden
00301,$GPGGA,082610.00,4943.05029,N,01405.86731,E,1,09,12.4,441.5,M,185.3,M,,*6B,Created
00302,$GPGGA,082610.00,4943.05029,N,01405.86731,E,1,09,12.4,441.5,M,185.3,M,,*6B,Forbidden
00303,$GPGGA,082610.00,4943.05029,N,01405.86731,E,1,09,8.2,441.5,M,28.8,M,,*6B,Forbidden
00304,$GPGGA,082610.00,4943.05029,N,01405.86731,E,1,09,8.2,441.5,M,28.8,M,,*6B,Forbidden
00305,$GPGGA,082620.00,4943.04980,N,01405.86938,E,1,08,12.4,443.9,M,185.3,M,,*6B,Created
00306,$GPGGA,082620.00,4943.04980,N,01405.86938,E,1,08,12.4,443.9,M,185.3,M,,*6B,Forbidden
00307,$GPGGA,082620.00,4943.04980,N,01405.86938,E,1,08,8.2,443.9,M,28.7,M,,*64,Forbidden
00308,$GPGGA,082620.00,4943.04980,N,01405.86938,E,1,08,8.2,443.9,M,28.7,M,,*64,Forbidden
00309,$GPGGA,082632.00,4943.04980,N,01405.87122,E,1,09,12.4,440.0,M,185.5,M,,*67,Created
00310,$GPGGA,082632.00,4943.04980,N,01405.87122,E,1,09,12.4,440.0,M,185.5,M,,*67,Forbidden
00311,$GPGGA,082632.00,4943.04980,N,01405.87122,E,1,09,8.2,440.0,M,29.5,M,,*6D,Forbidden
00312,$GPGGA,082632.00,4943.04980,N,01405.87122,E,1,09,8.2,440.0,M,29.5,M,,*6D,Forbidden
00313,$GPGGA,082643.00,4943.04834,N,01405.87231,E,1,09,12.4,435.8,M,185.2,M,,*63,Created
00314,$GPGGA,082643.00,4943.04834,N,01405.87231,E,1,09,12.4,435.8,M,185.2,M,,*63,Forbidden
00315,$GPGGA,082643.00,4943.04834,N,01405.87231,E,1,09,8.2,435.8,M,28.8,M,,*62,Forbidden
00316,$GPGGA,082643.00,4943.04834,N,01405.87231,E,1,09,8.2,435.8,M,28.8,M,,*62,Forbidden
00317,$GPGGA,082654.00,4943.05322,N,01405.87488,E,1,09,12.4,441.0,M,184.6,M,,*62,Created
00318,$GPGGA,082654.00,4943.05322,N,01405.87488,E,1,09,12.4,441.0,M,184.6,M,,*62,Forbidden
00319,$GPGGA,082705.00,4943.05469,N,01405.87732,E,1,09,12.4,441.7,M,185.0,M,,*6D,Created
00320,$GPGGA,082705.00,4943.05469,N,01405.87732,E,1,09,12.4,441.7,M,185.0,M,,*6D,Forbidden
00321,$GPGGA,082705.00,4943.05469,N,01405.87732,E,1,09,8.2,441.7,M,29.0,M,,*67,Forbidden
00322,$GPGGA,082705.00,4943.05469,N,01405.87732,E,1,09,8.2,441.7,M,29.0,M,,*67,Forbidden
00323,$GPGGA,082717.00,4943.05615,N,01405.87988,E,1,08,12.4,438.6,M,184.3,M,,*64,Created
00324,$GPGGA,082717.00,4943.05615,N,01405.87988,E,1,08,12.4,438.6,M,184.3,M,,*64,Forbidden
00325,$GPGGA,082717.00,4943.05615,N,01405.87988,E,1,08,8.2,438.6,M,28.7,M,,*6A,Forbidden
00326,$GPGGA,082717.00,4943.05615,N,01405.87988,E,1,08,8.2,438.6,M,28.7,M,,*6A,Forbidden
00327,$GPGGA,082728.00,4943.05127,N,01405.88501,E,1,09,12.4,439.0,M,184.3,M,,*6A,Created
00328,$GPGGA,082728.00,4943.05127,N,01405.88501,E,1,09,12.4,439.0,M,184.3,M,,*6A,Forbidden
00329,$GPGGA,082728.00,4943.05127,N,01405.88501,E,1,09,8.3,439.0,M,29.9,M,,*6A,Forbidden
00330,$GPGGA,082728.00,4943.05127,N,01405.88501,E,1,09,8.3,439.0,M,29.9,M,,*6A,Forbidden
00331,$GPGGA,082739.00,4943.04443,N,01405.88574,E,1,09,12.4,441.3,M,184.5,M,,*64,Created
00332,$GPGGA,082739.00,4943.04443,N,01405.88574,E,1,09,12.4,441.3,M,184.5,M,,*64,Forbidden
00333,$GPGGA,082739.00,4943.04443,N,01405.88574,E,1,09,8.2,441.3,M,28.5,M,,*6E,Forbidden
00334,$GPGGA,082739.00,4943.04443,N,01405.88574,E,1,09,8.2,441.3,M,28.5,M,,*6E,Forbidden
00335,$GPGGA,082750.00,4943.03857,N,01405.88599,E,1,09,12.4,439.7,M,185.0,M,,*69,Created
00336,$GPGGA,082750.00,4943.03857,N,01405.88599,E,1,09,12.4,439.7,M,185.0,M,,*69,Forbidden
00337,$GPGGA,082750.00,4943.03857,N,01405.88599,E,1,09,8.2,439.7,M,29.0,M,,*63,Forbidden
00338,$GPGGA,082750.00,4943.03857,N,01405.88599,E,1,09,8.2,439.7,M,29.0,M,,*63,Forbidden
00339,$GPGGA,082801.00,4943.03613,N,01405.88623,E,1,09,12.4,436.6,M,185.2,M,,*62,Created
00340,$GPGGA,082801.00,4943.03613,N,01405.88623,E,1,09,12.4,436.6,M,185.2,M,,*62,Forbidden
00341,$GPGGA,082801.00,4943.03613,N,01405.88623,E,1,09,8.2,436.6,M,28.5,M,,*6E,Forbidden
00342,$GPGGA,082801.00,4943.03613,N,01405.88623,E,1,09,8.2,436.6,M,28.5,M,,*6E,Forbidden
00343,$GPGGA,082813.00,4943.03418,N,01405.88562,E,1,09,12.4,425.0,M,184.6,M,,*6F,Created
00344,$GPGGA,082813.00,4943.03418,N,01405.88562,E,1,09,12.4,425.0,M,184.6,M,,*6F,Forbidden
00345,$GPGGA,082813.00,4943.03418,N,01405.88562,E,1,09,8.2,425.0,M,28.7,M,,*64,Forbidden
00346,$GPGGA,082813.00,4943.03418,N,01405.88562,E,1,09,8.2,425.0,M,28.7,M,,*64,Forbidden
00347,$GPGGA,082823.00,4943.03369,N,01405.88220,E,1,09,12.4,418.1,M,184.8,M,,*6D,Created
00348,$GPGGA,082823.00,4943.03369,N,01405.88220,E,1,09,12.4,418.1,M,184.8,M,,*6D,Forbidden
00349,$GPGGA,082823.00,4943.03369,N,01405.88220,E,1,09,8.3,418.1,M,30.4,M,,*63,Forbidden
00350,$GPGGA,082823.00,4943.03369,N,01405.88220,E,1,09,8.3,418.1,M,30.4,M,,*63,Forbidden
00351,$GPGGA,082834.00,4943.03516,N,01405.88098,E,1,09,12.4,414.3,M,184.8,M,,*6A,Created
00352,$GPGGA,082834.00,4943.03516,N,01405.88098,E,1,09,12.4,414.3,M,184.8,M,,*6A,Forbidden
00353,$GPGGA,082834.00,4943.03516,N,01405.88098,E,1,09,8.2,414.3,M,28.8,M,,*60,Forbidden
00354,$GPGGA,082834.00,4943.03516,N,01405.88098,E,1,09,8.2,414.3,M,28.8,M,,*60,Forbidden
00355,$GPGGA,082845.00,4943.03809,N,01405.87708,E,1,09,12.4,421.3,M,185.2,M,,*63,Created
00356,$GPGGA,082845.00,4943.03809,N,01405.87708,E,1,09,12.4,421.3,M,185.2,M,,*63,Forbidden
00357,$GPGGA,082845.00,4943.03809,N,01405.87708,E,1,09,8.2,421.3,M,29.0,M,,*6B,Forbidden
00358,$GPGGA,082845.00,4943.03809,N,01405.87708,E,1,09,8.2,421.3,M,29.0,M,,*6B,Forbidden
00359,$GPGGA,082856.00,4943.03809,N,01405.87451,E,1,09,12.4,425.8,M,184.6,M,,*64,Created
00360,$GPGGA,082856.00,4943.03809,N,01405.87451,E,1,09,12.4,425.8,M,184.6,M,,*64,Forbidden
00361,$GPGGA,082856.00,4943.03809,N,01405.87451,E,1,09,8.2,425.8,M,28.8,M,,*60,Forbidden
00362,$GPGGA,082856.00,4943.03809,N,01405.87451,E,1,09,8.2,425.8,M,28.8,M,,*60,Forbidden
00363,$GPGGA,082908.00,4943.03564,N,01405.87390,E,1,09,12.4,435.3,M,185.2,M,,*6D,Created
00364,$GPGGA,082908.00,4943.03564,N,01405.87390,E,1,09,12.4,435.3,M,185.2,M,,*6D,Forbidden
00365,$GPGGA,082908.00,4943.03564,N,01405.87390,E,1,09,8.3,435.3,M,29.9,M,,*6D,Forbidden
00366,$GPGGA,082908.00,4943.03564,N,01405.87390,E,1,09,8.3,435.3,M,29.9,M,,*6D,Forbidden
00367,$GPGGA,082919.00,4943.03564,N,01405.87329,E,1,09,12.4,441.7,M,184.3,M,,*68,Created
00368,$GPGGA,082919.00,4943.03564,N,01405.87329,E,1,09,12.4,441.7,M,184.3,M,,*68,Forbidden
00369,$GPGGA,082919.00,4943.03564,N,01405.87329,E,1,09,8.2,441.7,M,29.2,M,,*62,Forbidden
00370,$GPGGA,082919.00,4943.03564,N,01405.87329,E,1,09,8.2,441.7,M,29.2,M,,*62,Forbidden
00371,$GPGGA,082930.00,4943.03418,N,01405.87317,E,1,09,12.4,444.7,M,185.0,M,,*63,Created
00372,$GPGGA,082930.00,4943.03418,N,01405.87317,E,1,09,12.4,444.7,M,185.0,M,,*63,Forbidden
00373,$GPGGA,082930.00,4943.03418,N,01405.87317,E,1,09,8.3,444.7,M,30.4,M,,*64,Forbidden
00374,$GPGGA,082930.00,4943.03418,N,01405.87317,E,1,09,8.3,444.7,M,30.4,M,,*64,Forbidden
00375,$GPGGA,082941.00,4943.03223,N,01405.87317,E,1,09,12.4,448.2,M,184.8,M,,*6B,Created
00376,$GPGGA,082941.00,4943.03223,N,01405.87317,E,1,09,12.4,448.2,M,184.8,M,,*6B,Forbidden
00377,$GPGGA,082941.00,4943.03223,N,01405.87317,E,1,09,8.2,448.2,M,28.7,M,,*6E,Forbidden
00378,$GPGGA,082941.00,4943.03223,N,01405.87317,E,1,09,8.2,448.2,M,28.7,M,,*6E,Forbidden
00379,$GPGGA,082953.00,4943.03174,N,01405.87231,E,1,09,12.4,451.3,M,184.5,M,,*68,Created
00380,$GPGGA,082953.00,4943.03174,N,01405.87231,E,1,09,12.4,451.3,M,184.5,M,,*68,Forbidden
00381,$GPGGA,082953.00,4943.03174,N,01405.87231,E,1,09,8.2,451.3,M,29.3,M,,*65,Forbidden
00382,$GPGGA,082953.00,4943.03174,N,01405.87231,E,1,09,8.2,451.3,M,29.3,M,,*65,Forbidden
00383,$GPGGA,083003.00,4943.03174,N,01405.87158,E,1,09,12.4,453.2,M,185.0,M,,*6E,Created
00384,$GPGGA,083003.00,4943.03174,N,01405.87158,E,1,09,12.4,453.2,M,185.0,M,,*6E,Forbidden
00385,$GPGGA,083003.00,4943.03174,N,01405.87158,E,1,09,8.3,453.2,M,30.0,M,,*6D,Forbidden
00386,$GPGGA,083003.00,4943.03174,N,01405.87158,E,1,09,8.3,453.2,M,30.0,M,,*6D,Forbidden
00387,$GPGGA,0000 0.00,   0.00000,N,0   0.00000,E,1,00,12.4,0.0,M,183.4,M,,*75,Created
00388,$GPGGA,0000 0.00,   0.00000,N,0   0.00000,E,1,00,12.4,0.0,M,183.4,M,,*75,Forbidden
00389,$GPGGA,0000 0.00,   0.00000,N,0   0.00000,E,1,00,8.1,0.0,M,24.5,M,,*76,Forbidden
00390,$GPGGA,0000 0.00,   0.00000,N,0   0.00000,E,1,00,8.1,0.0,M,24.5,M,,*76,Forbidden
00391,$GPGGA,092227.00,   0.00000,N,0   0.00000,E,1,00,12.4,0.0,M,184.8,M,,*62,Created
00392,$GPGGA,092227.00,   0.00000,N,0   0.00000,E,1,00,12.4,0.0,M,184.8,M,,*62,Forbidden
00393,$GPGGA,092227.00,   0.00000,N,0   0.00000,E,1,00,8.2,0.0,M,26.4,M,,*6A,Forbidden
00394,$GPGGA,092227.00,   0.00000,N,0   0.00000,E,1,00,8.2,0.0,M,26.4,M,,*6A,Forbidden
00395,$GPGGA,092238.00,   0.00000,N,0   0.00000,E,1,00,12.4,0.0,M,184.8,M,,*6C,Created
00396,$GPGGA,092238.00,   0.00000,N,0   0.00000,E,1,00,12.4,0.0,M,184.8,M,,*6C,Forbidden
00397,$GPGGA,092238.00,   0.00000,N,0   0.00000,E,1,00,8.1,0.0,M,25.6,M,,*66,Forbidden
00398,$GPGGA,092238.00,   0.00000,N,0   0.00000,E,1,00,8.1,0.0,M,25.6,M,,*66,Forbidden
00399,$GPGGA,092249.00,4943.04980,N,01405.87390,E,1,06,12.4,451.5,M,185.8,M,,*62,Created
00400,$GPGGA,092249.00,4943.04980,N,01405.87390,E,1,06,12.4,451.5,M,185.8,M,,*62,Forbidden
00401,$GPGGA,092249.00,4943.04980,N,01405.87390,E,1,06,8.2,451.5,M,25.9,M,,*65,Forbidden
00402,$GPGGA,092249.00,4943.04980,N,01405.87390,E,1,06,8.2,451.5,M,25.9,M,,*65,Forbidden
00403,$GPGGA,092300.00,4943.04932,N,01405.87195,E,1,06,12.4,461.2,M,184.3,M,,*6E,Created
00404,$GPGGA,092300.00,4943.04932,N,01405.87195,E,1,06,12.4,461.2,M,184.3,M,,*6E,Forbidden
00405,$GPGGA,092300.00,4943.04932,N,01405.87195,E,1,06,8.1,461.2,M,25.1,M,,*68,Forbidden
00406,$GPGGA,092300.00,4943.04932,N,01405.87195,E,1,06,8.1,461.2,M,25.1,M,,*68,Forbidden
00407,$GPGGA,092311.00,4943.04346,N,01405.87378,E,1,09,12.4,466.8,M,184.5,M,,*62,Created
00408,$GPGGA,092311.00,4943.04346,N,01405.87378,E,1,09,12.4,466.8,M,184.5,M,,*62,Forbidden
00409,$GPGGA,092311.00,4943.04346,N,01405.87378,E,1,09,8.2,466.8,M,27.1,M,,*63,Forbidden
00410,$GPGGA,092311.00,4943.04346,N,01405.87378,E,1,09,8.2,466.8,M,27.1,M,,*63,Forbidden
00411,$GPGGA,092323.00,4943.04053,N,01405.87488,E,1,09,12.4,464.8,M,184.3,M,,*68,Created
00412,$GPGGA,092323.00,4943.04053,N,01405.87488,E,1,09,12.4,464.8,M,184.3,M,,*68,Forbidden
00413,$GPGGA,092323.00,4943.04053,N,01405.87488,E,1,09,8.2,464.8,M,26.9,M,,*66,Forbidden
00414,$GPGGA,092323.00,4943.04053,N,01405.87488,E,1,09,8.2,464.8,M,26.9,M,,*66,Forbidden
00415,$GPGGA,092334.00,4943.03906,N,01405.87610,E,1,09,12.4,458.0,M,184.8,M,,*6F,Created
00416,$GPGGA,092334.00,4943.03906,N,01405.87610,E,1,09,12.4,458.0,M,184.8,M,,*6F,Forbidden
00417,$GPGGA,092334.00,4943.03906,N,01405.87610,E,1,09,8.2,458.0,M,25.9,M,,*69,Forbidden
00418,$GPGGA,092334.00,4943.03906,N,01405.87610,E,1,09,8.2,458.0,M,25.9,M,,*69,Forbidden
00419,$GPGGA,092345.00,4943.03809,N,01405.87646,E,1,09,12.4,454.7,M,184.6,M,,*61,Created
00420,$GPGGA,092345.00,4943.03809,N,01405.87646,E,1,09,12.4,454.7,M,184.6,M,,*61,Forbidden
00421,$GPGGA,092345.00,4943.03809,N,01405.87646,E,1,09,8.2,454.7,M,26.9,M,,*6A,Forbidden
00422,$GPGGA,092345.00,4943.03809,N,01405.87646,E,1,09,8.2,454.7,M,26.9,M,,*6A,Forbidden
00423,$GPGGA,092355.00,4943.03662,N,01405.87573,E,1,09,12.4,454.7,M,184.5,M,,*65,Created
00424,$GPGGA,092355.00,4943.03662,N,01405.87573,E,1,09,12.4,454.7,M,184.5,M,,*65,Forbidden
00425,$GPGGA,092355.00,4943.03662,N,01405.87573,E,1,09,8.2,454.7,M,26.3,M,,*67,Forbidden
00426,$GPGGA,092355.00,4943.03662,N,01405.87573,E,1,09,8.2,454.7,M,26.3,M,,*67,Forbidden
00427,$GPGGA,092407.00,4943.03564,N,01405.87341,E,1,09,12.4,463.6,M,184.8,M,,*6F,Created
00428,$GPGGA,092407.00,4943.03564,N,01405.87341,E,1,09,12.4,463.6,M,184.8,M,,*6F,Forbidden
00429,$GPGGA,092407.00,4943.03564,N,01405.87341,E,1,09,8.2,463.6,M,27.3,M,,*61,Forbidden
00430,$GPGGA,092407.00,4943.03564,N,01405.87341,E,1,09,8.2,463.6,M,27.3,M,,*61,Forbidden
00431,$GPGGA,092418.00,4943.04199,N,01405.87219,E,1,09,12.4,457.1,M,184.5,M,,*61,Created
00432,$GPGGA,092418.00,4943.04199,N,01405.87219,E,1,09,12.4,457.1,M,184.5,M,,*61,Forbidden
00433,$GPGGA,092418.00,4943.04199,N,01405.87219,E,1,09,8.2,457.1,M,28.7,M,,*69,Forbidden
00434,$GPGGA,092418.00,4943.04199,N,01405.87219,E,1,09,8.2,457.1,M,28.7,M,,*69,Forbidden
00435,$GPGGA,092429.00,4943.04492,N,01405.87683,E,1,08,12.4,456.3,M,184.5,M,,*68,Created
00436,$GPGGA,092429.00,4943.04492,N,01405.87683,E,1,08,12.4,456.3,M,184.5,M,,*68,Forbidden
00437,$GPGGA,092429.00,4943.04492,N,01405.87683,E,1,08,8.2,456.3,M,28.0,M,,*67,Forbidden
00438,$GPGGA,092429.00,4943.04492,N,01405.87683,E,1,08,8.2,456.3,M,28.0,M,,*67,Forbidden
00439,$GPGGA,092440.00,4943.04346,N,01405.87891,E,1,09,12.4,458.9,M,184.3,M,,*67,Created
00440,$GPGGA,092440.00,4943.04346,N,01405.87891,E,1,09,12.4,458.9,M,184.3,M,,*67,Forbidden
00441,$GPGGA,092440.00,4943.04346,N,01405.87891,E,1,09,8.2,458.9,M,27.5,M,,*64,Forbidden
00442,$GPGGA,092440.00,4943.04346,N,01405.87891,E,1,09,8.2,458.9,M,27.5,M,,*64,Forbidden
00443,$GPGGA,092451.00,4943.04346,N,01405.88025,E,1,09,12.4,455.5,M,184.1,M,,*6C,Created
00444,$GPGGA,092451.00,4943.04346,N,01405.88025,E,1,09,12.4,455.5,M,184.1,M,,*6C,Forbidden
00445,$GPGGA,092451.00,4943.04346,N,01405.88025,E,1,09,8.2,455.5,M,28.5,M,,*62,Forbidden
00446,$GPGGA,092451.00,4943.04346,N,01405.88025,E,1,09,8.2,455.5,M,28.5,M,,*62,Forbidden
00447,$GPGGA,092503.00,4943.04346,N,01405.87976,E,1,09,12.4,455.7,M,184.1,M,,*68,Created
00448,$GPGGA,092503.00,4943.04346,N,01405.87976,E,1,09,12.4,455.7,M,184.1,M,,*68,Forbidden
00449,$GPGGA,092503.00,4943.04346,N,01405.87976,E,1,09,8.2,455.7,M,28.3,M,,*60,Forbidden
00450,$GPGGA,092503.00,4943.04346,N,01405.87976,E,1,09,8.2,455.7,M,28.3,M,,*60,Forbidden
00451,$GPGGA,092514.00,4943.04297,N,01405.87927,E,1,09,12.4,456.6,M,184.1,M,,*65,Created
00452,$GPGGA,092514.00,4943.04297,N,01405.87927,E,1,09,12.4,456.6,M,184.1,M,,*65,Forbidden
00453,$GPGGA,092514.00,4943.04297,N,01405.87927,E,1,09,8.2,456.6,M,29.0,M,,*6F,Forbidden
00454,$GPGGA,092514.00,4943.04297,N,01405.87927,E,1,09,8.2,456.6,M,29.0,M,,*6F,Forbidden
00455,$GPGGA,092525.00,4943.04199,N,01405.87830,E,1,09,12.4,456.5,M,184.3,M,,*6C,Created
00456,$GPGGA,092525.00,4943.04199,N,01405.87830,E,1,09,12.4,456.5,M,184.3,M,,*6C,Forbidden
00457,$GPGGA,092525.00,4943.04199,N,01405.87830,E,1,09,8.2,456.5,M,29.2,M,,*66,Forbidden
00458,$GPGGA,092525.00,4943.04199,N,01405.87830,E,1,09,8.2,456.5,M,29.2,M,,*66,Forbidden
00459,$GPGGA,092536.00,4943.04199,N,01405.87769,E,1,09,12.4,453.8,M,184.1,M,,*67,Created
00460,$GPGGA,092536.00,4943.04199,N,01405.87769,E,1,09,12.4,453.8,M,184.1,M,,*67,Forbidden
00461,$GPGGA,092536.00,4943.04199,N,01405.87769,E,1,09,8.2,453.8,M,28.3,M,,*6F,Forbidden
00462,$GPGGA,092536.00,4943.04199,N,01405.87769,E,1,09,8.2,453.8,M,28.3,M,,*6F,Forbidden
00463,$GPGGA,092546.00,4943.04248,N,01405.87781,E,1,09,12.4,452.1,M,184.1,M,,*61,Created
00464,$GPGGA,092546.00,4943.04248,N,01405.87781,E,1,09,12.4,452.1,M,184.1,M,,*61,Forbidden
00465,$GPGGA,092546.00,4943.04248,N,01405.87781,E,1,09,8.2,452.1,M,29.2,M,,*69,Forbidden
00466,$GPGGA,092546.00,4943.04248,N,01405.87781,E,1,09,8.2,452.1,M,29.2,M,,*69,Forbidden
00467,$GPGGA,092558.00,4943.04248,N,1405.87744,E,1,010,12.4,453.5,M,184.3,M,,*68,Created
00468,$GPGGA,092558.00,4943.04248,N,1405.87744,E,1,010,12.4,453.5,M,184.3,M,,*68,Forbidden
00469,$GPGGA,092558.00,4943.04248,N,1405.87744,E,1,010,8.2,453.5,M,29.5,M,,*65,Forbidden
00470,$GPGGA,092558.00,4943.04248,N,1405.87744,E,1,010,8.2,453.5,M,29.5,M,,*65,Forbidden
00471,$GPGGA,092609.00,4943.04248,N,1405.87830,E,1,010,12.4,453.7,M,184.6,M,,*64,Created
00472,$GPGGA,092609.00,4943.04248,N,1405.87830,E,1,010,12.4,453.7,M,184.6,M,,*64,Forbidden
00473,$GPGGA,092609.00,4943.04248,N,1405.87830,E,1,010,8.2,453.7,M,29.3,M,,*6A,Forbidden
00474,$GPGGA,092609.00,4943.04248,N,1405.87830,E,1,010,8.2,453.7,M,29.3,M,,*6A,Forbidden
00475,$GPGGA,092620.00,4943.04248,N,1405.87866,E,1,010,12.4,454.7,M,184.3,M,,*6E,Created
00476,$GPGGA,092620.00,4943.04248,N,1405.87866,E,1,010,12.4,454.7,M,184.3,M,,*6E,Forbidden
00477,$GPGGA,092620.00,4943.04248,N,1405.87866,E,1,010,8.2,454.7,M,28.7,M,,*60,Forbidden
00478,$GPGGA,092620.00,4943.04248,N,1405.87866,E,1,010,8.2,454.7,M,28.7,M,,*60,Forbidden
00479,$GPGGA,092631.00,4943.04199,N,1405.87927,E,1,010,12.4,457.4,M,184.0,M,,*66,Created
00480,$GPGGA,092631.00,4943.04199,N,1405.87927,E,1,010,12.4,457.4,M,184.0,M,,*66,Forbidden
00481,$GPGGA,092631.00,4943.04199,N,1405.87927,E,1,010,8.3,457.4,M,30.0,M,,*64,Forbidden
00482,$GPGGA,092631.00,4943.04199,N,1405.87927,E,1,010,8.3,457.4,M,30.0,M,,*64,Forbidden
00483,$GPGGA,092643.00,4943.04199,N,1405.87891,E,1,010,12.4,458.9,M,184.3,M,,*6E,Created
00484,$GPGGA,092643.00,4943.04199,N,1405.87891,E,1,010,12.4,458.9,M,184.3,M,,*6E,Forbidden
00485,$GPGGA,092643.00,4943.04199,N,1405.87891,E,1,010,8.2,458.9,M,29.2,M,,*64,Forbidden
00486,$GPGGA,092643.00,4943.04199,N,1405.87891,E,1,010,8.2,458.9,M,29.2,M,,*64,Forbidden
00487,$GPGGA,092654.00,4943.04150,N,1405.87927,E,1,010,12.4,460.8,M,183.6,M,,*69,Created
00488,$GPGGA,092654.00,4943.04150,N,1405.87927,E,1,010,12.4,460.8,M,183.6,M,,*69,Forbidden
00489,$GPGGA,092654.00,4943.04150,N,1405.87927,E,1,010,8.3,460.8,M,30.4,M,,*6E,Forbidden
00490,$GPGGA,092654.00,4943.04150,N,1405.87927,E,1,010,8.3,460.8,M,30.4,M,,*6E,Forbidden
00491,$GPGGA,092705.00,4943.04102,N,1405.87817,E,1,010,12.4,462.3,M,184.8,M,,*69,Created
00492,$GPGGA,092705.00,4943.04102,N,1405.87817,E,1,010,12.4,462.3,M,184.8,M,,*69,Forbidden
00493,$GPGGA,092705.00,4943.04102,N,1405.87817,E,1,010,8.3,462.3,M,30.5,M,,*66,Forbidden
00494,$GPGGA,092705.00,4943.04102,N,1405.87817,E,1,010,8.3,462.3,M,30.5,M,,*66,Forbidden
00495,$GPGGA,092716.00,4943.04150,N,01405.87793,E,1,09,12.4,459.9,M,183.8,M,,*62,Created
00496,$GPGGA,092716.00,4943.04150,N,01405.87793,E,1,09,12.4,459.9,M,183.8,M,,*62,Forbidden
00497,$GPGGA,092716.00,4943.04150,N,01405.87793,E,1,09,8.3,459.9,M,29.7,M,,*60,Forbidden
00498,$GPGGA,092716.00,4943.04150,N,01405.87793,E,1,09,8.3,459.9,M,29.7,M,,*60,Forbidden
00499,$GPGGA,092726.00,4943.04150,N,1405.87817,E,1,010,12.4,456.3,M,184.3,M,,*63,Created
00500,$GPGGA,092726.00,4943.04150,N,1405.87817,E,1,010,12.4,456.3,M,184.3,M,,*63,Forbidden
00501,$GPGGA,092726.00,4943.04150,N,1405.87817,E,1,010,8.3,456.3,M,30.5,M,,*67,Forbidden
00502,$GPGGA,092726.00,4943.04150,N,1405.87817,E,1,010,8.3,456.3,M,30.5,M,,*67,Forbidden
00503,$GPGGA,092738.00,4943.04297,N,1405.87476,E,1,010,12.4,452.6,M,184.3,M,,*6E,Created
00504,$GPGGA,092738.00,4943.04297,N,1405.87476,E,1,010,12.4,452.6,M,184.3,M,,*6E,Forbidden
00505,$GPGGA,092738.00,4943.04297,N,1405.87476,E,1,010,8.3,452.6,M,30.5,M,,*6A,Forbidden
00506,$GPGGA,092738.00,4943.04297,N,1405.87476,E,1,010,8.3,452.6,M,30.5,M,,*6A,Forbidden
00507,$GPGGA,092749.00,4943.04395,N,1405.87390,E,1,010,12.4,445.5,M,184.5,M,,*67,Created
00508,$GPGGA,092749.00,4943.04395,N,1405.87390,E,1,010,12.4,445.5,M,184.5,M,,*67,Forbidden
00509,$GPGGA,092749.00,4943.04395,N,1405.87390,E,1,010,8.3,445.5,M,31.6,M,,*67,Forbidden
00510,$GPGGA,092749.00,4943.04395,N,1405.87390,E,1,010,8.3,445.5,M,31.6,M,,*67,Forbidden
00511,$GPGGA,092800.00,4943.04346,N,1405.87317,E,1,010,12.4,440.8,M,184.3,M,,*6A,Created
00512,$GPGGA,092800.00,4943.04346,N,1405.87317,E,1,010,12.4,440.8,M,184.3,M,,*6A,Forbidden
00513,$GPGGA,092800.00,4943.04346,N,1405.87317,E,1,010,8.3,440.8,M,30.7,M,,*6C,Forbidden
00514,$GPGGA,092800.00,4943.04346,N,1405.87317,E,1,010,8.3,440.8,M,30.7,M,,*6C,Forbidden
00515,$GPGGA,092811.00,4943.04248,N,1405.87085,E,1,010,12.4,436.4,M,183.8,M,,*6C,Created
00516,$GPGGA,092811.00,4943.04248,N,1405.87085,E,1,010,12.4,436.4,M,183.8,M,,*6C,Forbidden
00517,$GPGGA,092811.00,4943.04248,N,1405.87085,E,1,010,8.3,436.4,M,30.2,M,,*63,Forbidden
00518,$GPGGA,092811.00,4943.04248,N,1405.87085,E,1,010,8.3,436.4,M,30.2,M,,*63,Forbidden
00519,$GPGGA,092822.00,4943.04199,N,1405.87097,E,1,010,12.4,433.2,M,184.1,M,,*6D,Created
00520,$GPGGA,092822.00,4943.04199,N,1405.87097,E,1,010,12.4,433.2,M,184.1,M,,*6D,Forbidden
00521,$GPGGA,092822.00,4943.04199,N,1405.87097,E,1,010,8.3,433.2,M,31.4,M,,*6B,Forbidden
00522,$GPGGA,092822.00,4943.04199,N,1405.87097,E,1,010,8.3,433.2,M,31.4,M,,*6B,Forbidden
00523,$GPGGA,092834.00,4943.04150,N,1405.86902,E,1,010,12.4,434.4,M,184.1,M,,*6A,Created
00524,$GPGGA,092834.00,4943.04150,N,1405.86902,E,1,010,12.4,434.4,M,184.1,M,,*6A,Forbidden
00525,$GPGGA,092834.00,4943.04150,N,1405.86902,E,1,010,8.3,434.4,M,31.1,M,,*69,Forbidden
00526,$GPGGA,092834.00,4943.04150,N,1405.86902,E,1,010,8.3,434.4,M,31.1,M,,*69,Forbidden
00527,$GPGGA,092845.00,4943.04248,N,01405.86987,E,1,09,12.4,434.9,M,184.0,M,,*6F,Created
00528,$GPGGA,092845.00,4943.04248,N,01405.86987,E,1,09,12.4,434.9,M,184.0,M,,*6F,Forbidden
00529,$GPGGA,092845.00,4943.04248,N,01405.86987,E,1,09,8.3,434.9,M,31.4,M,,*68,Forbidden
00530,$GPGGA,092845.00,4943.04248,N,01405.86987,E,1,09,8.3,434.9,M,31.4,M,,*68,Forbidden
00531,$GPGGA,092856.00,4943.04248,N,1405.87000,E,1,010,12.4,435.7,M,183.6,M,,*6C,Created
00532,$GPGGA,092856.00,4943.04248,N,1405.87000,E,1,010,12.4,435.7,M,183.6,M,,*6C,Forbidden
00533,$GPGGA,092856.00,4943.04248,N,1405.87000,E,1,010,8.3,435.7,M,30.9,M,,*66,Forbidden
00534,$GPGGA,092856.00,4943.04248,N,1405.87000,E,1,010,8.3,435.7,M,30.9,M,,*66,Forbidden
00535,$GPGGA,092906.00,4943.04150,N,1405.86975,E,1,010,12.4,438.3,M,184.0,M,,*60,Created
00536,$GPGGA,092906.00,4943.04150,N,1405.86975,E,1,010,12.4,438.3,M,184.0,M,,*60,Forbidden
00537,$GPGGA,092906.00,4943.04150,N,1405.86975,E,1,010,8.3,438.3,M,30.9,M,,*6B,Forbidden
00538,$GPGGA,092906.00,4943.04150,N,1405.86975,E,1,010,8.3,438.3,M,30.9,M,,*6B,Forbidden
00539,$GPGGA,092918.00,4943.04150,N,1405.86670,E,1,010,12.4,438.6,M,183.8,M,,*6F,Created
00540,$GPGGA,092918.00,4943.04150,N,1405.86670,E,1,010,12.4,438.6,M,183.8,M,,*6F,Forbidden
00541,$GPGGA,092918.00,4943.04150,N,1405.86670,E,1,010,8.3,438.6,M,30.7,M,,*65,Forbidden
00542,$GPGGA,092918.00,4943.04150,N,1405.86670,E,1,010,8.3,438.6,M,30.7,M,,*65,Forbidden
00543,$GPGGA,092929.00,4943.04102,N,1405.86670,E,1,010,12.4,439.9,M,183.6,M,,*6A,Created
00544,$GPGGA,092929.00,4943.04102,N,1405.86670,E,1,010,12.4,439.9,M,183.6,M,,*6A,Forbidden
00545,$GPGGA,092929.00,4943.04102,N,1405.86670,E,1,010,8.3,439.9,M,30.9,M,,*60,Forbidden
00546,$GPGGA,092929.00,4943.04102,N,1405.86670,E,1,010,8.3,439.9,M,30.9,M,,*60,Forbidden
00547,$GPGGA,092940.00,4943.04102,N,1405.86719,E,1,010,12.4,443.9,M,183.6,M,,*66,Created
00548,$GPGGA,092940.00,4943.04102,N,1405.86719,E,1,010,12.4,443.9,M,183.6,M,,*66,Forbidden
00549,$GPGGA,092940.00,4943.04102,N,1405.86719,E,1,010,8.3,443.9,M,31.6,M,,*62,Forbidden
00550,$GPGGA,092940.00,4943.04102,N,1405.86719,E,1,010,8.3,443.9,M,31.6,M,,*62,Forbidden
00551,$GPGGA,092951.00,4943.04053,N,1405.86731,E,1,010,12.4,439.8,M,183.4,M,,*67,Created
00552,$GPGGA,092951.00,4943.04053,N,1405.86731,E,1,010,12.4,439.8,M,183.4,M,,*67,Forbidden
00553,$GPGGA,092951.00,4943.04053,N,1405.86731,E,1,010,8.3,439.8,M,31.9,M,,*6E,Forbidden
00554,$GPGGA,092951.00,4943.04053,N,1405.86731,E,1,010,8.3,439.8,M,31.9,M,,*6E,Forbidden
00555,$GPGGA,093002.00,4943.03809,N,1405.87061,E,1,010,12.4,431.6,M,183.8,M,,*60,Created
00556,$GPGGA,093002.00,4943.03809,N,1405.87061,E,1,010,12.4,431.6,M,183.8,M,,*60,Forbidden
00557,$GPGGA,093002.00,4943.03809,N,1405.87061,E,1,010,8.3,431.6,M,31.9,M,,*65,Forbidden
00558,$GPGGA,093002.00,4943.03809,N,1405.87061,E,1,010,8.3,431.6,M,31.9,M,,*65,Forbidden
00559,$GPGGA,093014.00,4943.03564,N,1405.87305,E,1,010,12.4,427.4,M,183.6,M,,*6B,Created
00560,$GPGGA,093014.00,4943.03564,N,1405.87305,E,1,010,12.4,427.4,M,183.6,M,,*6B,Forbidden
00561,$GPGGA,093014.00,4943.03564,N,1405.87305,E,1,010,8.3,427.4,M,32.1,M,,*6B,Forbidden
00562,$GPGGA,093014.00,4943.03564,N,1405.87305,E,1,010,8.3,427.4,M,32.1,M,,*6B,Forbidden
00563,$GPGGA,093025.00,4943.03418,N,1405.87390,E,1,010,12.4,429.8,M,183.6,M,,*6D,Created
00564,$GPGGA,093025.00,4943.03418,N,1405.87390,E,1,010,12.4,429.8,M,183.6,M,,*6D,Forbidden
00565,$GPGGA,093025.00,4943.03418,N,1405.87390,E,1,010,8.3,429.8,M,30.9,M,,*67,Forbidden
00566,$GPGGA,093025.00,4943.03418,N,1405.87390,E,1,010,8.3,429.8,M,30.9,M,,*67,Forbidden
00567,$GPGGA,093036.00,4943.03906,N,01405.87366,E,1,09,12.4,441.6,M,183.8,M,,*62,Created
00568,$GPGGA,093036.00,4943.03906,N,01405.87366,E,1,09,12.4,441.6,M,183.8,M,,*62,Forbidden
00569,$GPGGA,093036.00,4943.03906,N,01405.87366,E,1,09,8.3,441.6,M,32.3,M,,*6E,Forbidden
00570,$GPGGA,093036.00,4943.03906,N,01405.87366,E,1,09,8.3,441.6,M,32.3,M,,*6E,Forbidden
00571,$GPGGA,093046.00,4943.04199,N,1405.87317,E,1,010,12.4,447.1,M,183.4,M,,*6F,Created
00572,$GPGGA,093046.00,4943.04199,N,1405.87317,E,1,010,12.4,447.1,M,183.4,M,,*6F,Forbidden
00573,$GPGGA,093046.00,4943.04199,N,1405.87317,E,1,010,8.3,447.1,M,31.7,M,,*68,Forbidden
00574,$GPGGA,093046.00,4943.04199,N,1405.87317,E,1,010,8.3,447.1,M,31.7,M,,*68,Forbidden
00575,$GPGGA,093057.00,4943.04492,N,1405.87463,E,1,010,12.4,446.3,M,184.0,M,,*65,Created
00576,$GPGGA,093057.00,4943.04492,N,1405.87463,E,1,010,12.4,446.3,M,184.0,M,,*65,Forbidden
00577,$GPGGA,093057.00,4943.04492,N,1405.87463,E,1,010,8.3,446.3,M,32.4,M,,*61,Forbidden
00578,$GPGGA,093057.00,4943.04492,N,1405.87463,E,1,010,8.3,446.3,M,32.4,M,,*61,Forbidden
00579,$GPGGA,093109.00,4943.04736,N,01405.87854,E,1,06,12.3,449.4,M,183.1,M,,*64,Created
00580,$GPGGA,093109.00,4943.04736,N,01405.87854,E,1,06,12.3,449.4,M,183.1,M,,*64,Forbidden
00581,$GPGGA,093109.00,4943.04736,N,01405.87854,E,1,06,8.3,449.4,M,32.6,M,,*63,Forbidden
00582,$GPGGA,093109.00,4943.04736,N,01405.87854,E,1,06,8.3,449.4,M,32.6,M,,*63,Forbidden
00583,$GPGGA,093120.00,4943.05225,N,01405.88135,E,1,09,12.4,458.7,M,183.6,M,,*64,Created
00584,$GPGGA,093120.00,4943.05225,N,01405.88135,E,1,09,12.4,458.7,M,183.6,M,,*64,Forbidden
00585,$GPGGA,093120.00,4943.05225,N,01405.88135,E,1,09,8.3,458.7,M,32.1,M,,*64,Forbidden
00586,$GPGGA,093120.00,4943.05225,N,01405.88135,E,1,09,8.3,458.7,M,32.1,M,,*64,Forbidden
00587,$GPGGA,093131.00,4943.05225,N,01405.87244,E,1,08,12.3,459.9,M,183.1,M,,*60,Created
00588,$GPGGA,093131.00,4943.05225,N,01405.87244,E,1,08,12.3,459.9,M,183.1,M,,*60,Forbidden
00589,$GPGGA,093131.00,4943.05225,N,01405.87244,E,1,08,8.3,459.9,M,32.8,M,,*69,Forbidden
00590,$GPGGA,093131.00,4943.05225,N,01405.87244,E,1,08,8.3,459.9,M,32.8,M,,*69,Forbidden
00591,$GPGGA,093142.00,4943.05420,N,01405.86658,E,1,09,12.4,458.7,M,183.6,M,,*61,Created
00592,$GPGGA,093142.00,4943.05420,N,01405.86658,E,1,09,12.4,458.7,M,183.6,M,,*61,Forbidden
00593,$GPGGA,093142.00,4943.05420,N,01405.86658,E,1,09,8.3,458.7,M,31.9,M,,*6A,Forbidden
00594,$GPGGA,093142.00,4943.05420,N,01405.86658,E,1,09,8.3,458.7,M,31.9,M,,*6A,Forbidden
00595,$GPGGA,093154.00,4943.05566,N,1405.86230,E,1,010,12.4,456.8,M,183.6,M,,*66,Created
00596,$GPGGA,093154.00,4943.05566,N,1405.86230,E,1,010,12.4,456.8,M,183.6,M,,*66,Forbidden
00597,$GPGGA,093154.00,4943.05566,N,1405.86230,E,1,010,8.3,456.8,M,32.3,M,,*64,Forbidden
00598,$GPGGA,093154.00,4943.05566,N,1405.86230,E,1,010,8.3,456.8,M,32.3,M,,*64,Forbidden
00599,$GPGGA,093205.00,4943.05615,N,1405.86194,E,1,010,12.4,456.9,M,183.4,M,,*68,Created
00600,$GPGGA,093205.00,4943.05615,N,1405.86194,E,1,010,12.4,456.9,M,183.4,M,,*68,Forbidden
00601,$GPGGA,093205.00,4943.05615,N,1405.86194,E,1,010,8.3,456.9,M,31.9,M,,*61,Forbidden
00602,$GPGGA,093205.00,4943.05615,N,1405.86194,E,1,010,8.3,456.9,M,31.9,M,,*61,Forbidden
00603,$GPGGA,093216.00,4943.05664,N,1405.86121,E,1,010,12.4,456.4,M,183.4,M,,*6F,Created
00604,$GPGGA,093216.00,4943.05664,N,1405.86121,E,1,010,12.4,456.4,M,183.4,M,,*6F,Forbidden
00605,$GPGGA,093216.00,4943.05664,N,1405.86121,E,1,010,8.3,456.4,M,32.9,M,,*65,Forbidden
00606,$GPGGA,093216.00,4943.05664,N,1405.86121,E,1,010,8.3,456.4,M,32.9,M,,*65,Forbidden
00607,$GPGGA,093226.00,4943.05762,N,1405.85840,E,1,010,12.4,457.6,M,183.4,M,,*65,Created
00608,$GPGGA,093226.00,4943.05762,N,1405.85840,E,1,010,12.4,457.6,M,183.4,M,,*65,Forbidden
00609,$GPGGA,093226.00,4943.05762,N,1405.85840,E,1,010,8.3,457.6,M,32.9,M,,*6F,Forbidden
00610,$GPGGA,093226.00,4943.05762,N,1405.85840,E,1,010,8.3,457.6,M,32.9,M,,*6F,Forbidden
00611,$GPGGA,093237.00,4943.06299,N,01405.85254,E,1,09,12.4,457.6,M,183.3,M,,*67,Created
00612,$GPGGA,093237.00,4943.06299,N,01405.85254,E,1,09,12.4,457.6,M,183.3,M,,*67,Upload_error
00613,$GPGGA,093237.00,4943.06299,N,01405.85254,E,1,09,8.3,457.6,M,32.1,M,,*62,Upload_error
00614,$GPGGA,093237.00,4943.06299,N,01405.85254,E,1,09,8.3,457.6,M,32.1,M,,*62,Forbidden
00615,$GPGGA,093249.00,4943.06934,N,01405.84619,E,1,09,12.4,457.9,M,183.3,M,,*61,Created
00616,$GPGGA,093249.00,4943.06934,N,01405.84619,E,1,09,12.4,457.9,M,183.3,M,,*61,Forbidden
00617,$GPGGA,093249.00,4943.06934,N,01405.84619,E,1,09,8.4,457.9,M,33.5,M,,*66,Forbidden
00618,$GPGGA,093249.00,4943.06934,N,01405.84619,E,1,09,8.4,457.9,M,33.5,M,,*66,Forbidden
00619,$GPGGA,093300.00,4943.07422,N,01405.84265,E,1,09,12.4,458.0,M,183.3,M,,*6F,Created
00620,$GPGGA,093300.00,4943.07422,N,01405.84265,E,1,09,12.4,458.0,M,183.3,M,,*6F,Forbidden
00621,$GPGGA,093300.00,4943.07422,N,01405.84265,E,1,09,8.3,458.0,M,33.1,M,,*6B,Forbidden
00622,$GPGGA,093300.00,4943.07422,N,01405.84265,E,1,09,8.3,458.0,M,33.1,M,,*6B,Forbidden
00623,$GPGGA,093311.00,4943.08398,N,1405.83936,E,1,010,12.3,457.3,M,182.9,M,,*64,Created
00624,$GPGGA,093311.00,4943.08398,N,1405.83936,E,1,010,12.3,457.3,M,182.9,M,,*64,Forbidden
00625,$GPGGA,093311.00,4943.08398,N,1405.83936,E,1,010,8.3,457.3,M,32.3,M,,*6F,Forbidden
00626,$GPGGA,093311.00,4943.08398,N,1405.83936,E,1,010,8.3,457.3,M,32.3,M,,*6F,Forbidden
00627,$GPGGA,093322.00,4943.08936,N,1405.83215,E,1,010,12.4,456.7,M,183.6,M,,*6C,Created
00628,$GPGGA,093322.00,4943.08936,N,1405.83215,E,1,010,12.4,456.7,M,183.6,M,,*6C,Forbidden
00629,$GPGGA,093322.00,4943.08936,N,1405.83215,E,1,010,8.3,456.7,M,32.3,M,,*6E,Forbidden
00630,$GPGGA,093322.00,4943.08936,N,1405.83215,E,1,010,8.3,456.7,M,32.3,M,,*6E,Forbidden
00631,$GPGGA,093333.00,4943.09473,N,1405.82654,E,1,010,12.4,457.2,M,183.3,M,,*60,Created
00632,$GPGGA,093333.00,4943.09473,N,1405.82654,E,1,010,12.4,457.2,M,183.3,M,,*60,Forbidden
00633,$GPGGA,093333.00,4943.09473,N,1405.82654,E,1,010,8.3,457.2,M,32.9,M,,*6D,Forbidden
00634,$GPGGA,093333.00,4943.09473,N,1405.82654,E,1,010,8.3,457.2,M,32.9,M,,*6D,Forbidden
00635,$GPGGA,093345.00,4943.10059,N,1405.82129,E,1,010,12.4,457.6,M,183.6,M,,*69,Created
00636,$GPGGA,093345.00,4943.10059,N,1405.82129,E,1,010,12.4,457.6,M,183.6,M,,*69,Forbidden
00637,$GPGGA,093345.00,4943.10059,N,1405.82129,E,1,010,8.3,457.6,M,33.1,M,,*68,Forbidden
00638,$GPGGA,093345.00,4943.10059,N,1405.82129,E,1,010,8.3,457.6,M,33.1,M,,*68,Forbidden
00639,$GPGGA,093356.00,4943.10693,N,1405.81592,E,1,010,12.3,457.8,M,183.1,M,,*62,Created
00640,$GPGGA,093356.00,4943.10693,N,1405.81592,E,1,010,12.3,457.8,M,183.1,M,,*62,Forbidden
00641,$GPGGA,093356.00,4943.10693,N,1405.81592,E,1,010,8.4,457.8,M,33.5,M,,*60,Forbidden
00642,$GPGGA,093356.00,4943.10693,N,1405.81592,E,1,010,8.4,457.8,M,33.5,M,,*60,Forbidden
00643,$GPGGA,093407.00,4943.11182,N,1405.81091,E,1,010,12.3,457.7,M,183.1,M,,*6E,Created
00644,$GPGGA,093407.00,4943.11182,N,1405.81091,E,1,010,12.3,457.7,M,183.1,M,,*6E,Forbidden
00645,$GPGGA,093407.00,4943.11182,N,1405.81091,E,1,010,8.3,457.7,M,32.6,M,,*69,Forbidden
00646,$GPGGA,093407.00,4943.11182,N,1405.81091,E,1,010,8.3,457.7,M,32.6,M,,*69,Forbidden
00647,$GPGGA,093418.00,4943.11377,N,1405.80762,E,1,010,12.3,457.8,M,182.8,M,,*65,Created
00648,$GPGGA,093418.00,4943.11377,N,1405.80762,E,1,010,12.3,457.8,M,182.8,M,,*65,Forbidden
00649,$GPGGA,093418.00,4943.11377,N,1405.80762,E,1,010,8.3,457.8,M,32.4,M,,*68,Forbidden
00650,$GPGGA,093418.00,4943.11377,N,1405.80762,E,1,010,8.3,457.8,M,32.4,M,,*68,Forbidden
00651,$GPGGA,093429.00,4943.12061,N,1405.80310,E,1,010,12.3,458.3,M,183.1,M,,*6D,Created
00652,$GPGGA,093429.00,4943.12061,N,1405.80310,E,1,010,12.3,458.3,M,183.1,M,,*6D,Forbidden
00653,$GPGGA,093429.00,4943.12061,N,1405.80310,E,1,010,8.4,458.3,M,34.5,M,,*68,Forbidden
00654,$GPGGA,093429.00,4943.12061,N,1405.80310,E,1,010,8.4,458.3,M,34.5,M,,*68,Forbidden
00655,$GPGGA,093440.00,4943.12646,N,1405.79639,E,1,010,12.3,457.3,M,183.1,M,,*66,Created
00656,$GPGGA,093440.00,4943.12646,N,1405.79639,E,1,010,12.3,457.3,M,183.1,M,,*66,Forbidden
00657,$GPGGA,093440.00,4943.12646,N,1405.79639,E,1,010,8.3,457.3,M,32.6,M,,*61,Forbidden
00658,$GPGGA,093440.00,4943.12646,N,1405.79639,E,1,010,8.3,457.3,M,32.6,M,,*61,Forbidden
00659,$GPGGA,093451.00,4943.12793,N,01405.79492,E,1,09,12.4,456.8,M,183.3,M,,*6B,Created
00660,$GPGGA,093451.00,4943.12793,N,01405.79492,E,1,09,12.4,456.8,M,183.3,M,,*6B,Forbidden
00661,$GPGGA,093451.00,4943.12793,N,01405.79492,E,1,09,8.4,456.8,M,34.0,M,,*6E,Forbidden
00662,$GPGGA,093451.00,4943.12793,N,01405.79492,E,1,09,8.4,456.8,M,34.0,M,,*6E,Forbidden
00663,$GPGGA,093502.00, 4943.13037,N,1405.79529,E,1,010,12.3,456.0,M,183.1,M,,*60,Created
00664,$GPGGA,093502.00,4943.13037,N,1405.79529,E,1,010,8. 3,456.0,M,32.9,M,,*68,Created
00665,$GPGGA,093728.00,4943.17529,N,1408.40637,E,1,010,12.3,1241.6,M,182.6,M,,*5E,Created
